     2.11           OBSERVATION DATA    M (MIXED)           RINEX VERSION / TYPE
teqc  2019Feb25                         20190302 08:14:50UTCPGM / RUN BY / DATE
Linux2.6.32-573.12.1.el6.x86_64|x86_64|gcc|Win64-MinGW64|=+ COMMENT
NetR9 5.33          SMO                 20181205 001321 UTC COMMENT
gfzrnx-1.12-7590    FILE CONVERSION     20190302 073459 UTC COMMENT
HKLM                                                        MARKER NAME
23007M001                                                   MARKER NUMBER
SMO                 Lands Department HKSAR                  OBSERVER / AGENCY
5337K45560          TRIMBLE NETR9       5.33                REC # / TYPE / VERS
5320354684          TRM59800.00     SCIS                    ANT # / TYPE
        0.0083        0.0000        0.0000                  ANTENNA: DELTA H/E/N
 -2414045.9447  5391602.3519  2396878.8893                  APPROX POSITION XYZ
                                                            COMMENT
*********************************************************** COMMENT
*                 WARNING - FORMAT CONVERSION             * COMMENT
* ------------------------------------------------------- * COMMENT
*  The data values: observation, loss of lock (LLI) and   * COMMENT
*  signal strength (SSI) indicators are left as they are. * COMMENT
*    The LLI meaning differs between versions 2 and 3     * COMMENT
*    and the Interpretation of bit 1 and 2 has to be      * COMMENT
*                   used with caution !!!                 * COMMENT
*********************************************************** COMMENT
                                                            COMMENT
RINEX 3 -> 2 TYPE CONVERSION DETAILS:                       COMMENT
-------------------------------------                       COMMENT
   C C1I -> C2                                              COMMENT
   C C7I -> C7                                              COMMENT
   C L1I -> L2                                              COMMENT
   C L7I -> L7                                              COMMENT
   C S1I -> S2                                              COMMENT
   C S7I -> S7                                              COMMENT
-------------------------------------                       COMMENT
   E C1X -> C1                                              COMMENT
   E C5X -> C5                                              COMMENT
   E C7X -> C7                                              COMMENT
   E C8X -> C8                                              COMMENT
   E L1X -> L1                                              COMMENT
   E L5X -> L5                                              COMMENT
   E L7X -> L7                                              COMMENT
   E L8X -> L8                                              COMMENT
   E S1X -> S1                                              COMMENT
   E S5X -> S5                                              COMMENT
   E S7X -> S7                                              COMMENT
   E S8X -> S8                                              COMMENT
-------------------------------------                       COMMENT
   G C1C -> C1                                              COMMENT
   G C2X -> C2                                              COMMENT
   G C5X -> C5                                              COMMENT
   G L1C -> L1                                              COMMENT
   G L2W -> L2                                              COMMENT
   G L5X -> L5                                              COMMENT
   G C2W -> P2                                              COMMENT
   G S1C -> S1                                              COMMENT
   G S2W -> S2                                              COMMENT
   G S5X -> S5                                              COMMENT
-------------------------------------                       COMMENT
   J C1X -> C1                                              COMMENT
   J C2X -> C2                                              COMMENT
   J C5X -> C5                                              COMMENT
   J L1X -> L1                                              COMMENT
   J L2X -> L2                                              COMMENT
   J L5X -> L5                                              COMMENT
   J S1X -> S1                                              COMMENT
   J S2X -> S2                                              COMMENT
   J S5X -> S5                                              COMMENT
-------------------------------------                       COMMENT
   R C1C -> C1                                              COMMENT
   R C2C -> C2                                              COMMENT
   R L1P -> L1                                              COMMENT
   R L2P -> L2                                              COMMENT
   R C1P -> P1                                              COMMENT
   R C2P -> P2                                              COMMENT
   R S1P -> S1                                              COMMENT
   R S2P -> S2                                              COMMENT
-------------------------------------                       COMMENT
   S C1C -> C1                                              COMMENT
   S L1C -> L1                                              COMMENT
   S S1C -> S1                                              COMMENT
-------------------------------------                       COMMENT
                                                            COMMENT
    17    C1    C2    C5    C7    C8    L1    L2    L5    L7# / TYPES OF OBSERV
          L8    P1    P2    S1    S2    S5    S7    S8      # / TYPES OF OBSERV
    18                                                      LEAP SECONDS
                                                            COMMENT
EPOCH COUNT     m00  m10  m20  m30  m40  m50                COMMENT
               ---- ---- ---- ---- ---- ----                COMMENT
          A      20   20   20   20   20   20                COMMENT
          B      20   20   20   20   20   20                COMMENT
          C      20   20   20   20   20   20                COMMENT
          D      20   20   20   20   20   20                COMMENT
          E      20   20   20   20   20   20                COMMENT
          F      20   20   20   20   20   20                COMMENT
          G      20   20   20   20   20   20                COMMENT
          H      20   20   20   20   20   20                COMMENT
          I      20   20   20   20   20   20                COMMENT
          J      20   20   20   20   20   20                COMMENT
          K      20   20   20   20   20   20                COMMENT
          L      20   20   20   20   20   20                COMMENT
          M      20   20   20   20   20   20                COMMENT
          N      20   20   20   20   20   20                COMMENT
          O      20   20   20   20   20   20                COMMENT
          P      20   20   20   20   20   20                COMMENT
          Q      20   20   20   20   20   20                COMMENT
          R      20   20   20   20   20   20                COMMENT
          S      20   20   20   20   20   20                COMMENT
          T      20   20   20   20   20   20                COMMENT
          U      20   20   20   20   20   20                COMMENT
          V      20   20   20   20   20   20                COMMENT
          W      20   20   20   20   20   20                COMMENT
          X      20   20   20   20   20   20                COMMENT
    30.0000                                                 INTERVAL
teqc edited: all GLONASS satellites excluded                COMMENT
teqc edited: all SBAS satellites excluded                   COMMENT
teqc edited: all Galileo satellites excluded                COMMENT
teqc edited: all Beidou satellites excluded                 COMMENT
teqc edited: all QZSS satellites excluded                   COMMENT
  2018    12     4     0     0    0.0000000     GPS         TIME OF FIRST OBS
                                                            END OF HEADER
 18 12  4  0  0  0.0000000  0  9G02G05G06G12G13G15G17G19G25
  21740500.195 7
 114247057.826 7  89023732.319 6
                  21740504.320 6        47.200          39.400

  20725208.422 8  20725214.672 8
 108911680.177 8  84866278.660 7
                  20725214.961 7        50.900          43.700

  22159977.336 7  22159987.219 7  22159986.672 8
 116451349.537 7  90741429.327 5  86960499.730 8
                  22159987.105 5        44.200          35.900          49.700

  22835998.867 7  22836005.773 6
 120004011.005 7  93509609.743 5
                  22836005.621 5        46.200          31.800

  22726137.758 7
 119426693.823 7  93059762.420 4
                  22726144.777 4        42.600          29.400

  25302173.086 6  25302179.902 5
 132963820.225 6 103608199.789 2
                  25302179.453 2        40.600          17.800

  23767030.984 6  23767039.199 6
 124896584.434 6  97321982.474 4
                  23767039.703 4        39.700          25.100

  22082060.750 7
 116041973.274 7  90422351.501 6
                  22082066.395 6        45.200          38.300

  24278585.133 6  24278594.836 6  24278594.520 7
 127584723.793 6  99416760.868 4  95274361.032 7
                  24278594.457 4        40.800          25.100          45.600

 18 12  4  0  0 30.0000000  0  9G02G05G06G12G13G15G17G19G25
  21734899.984 7
 114217629.306 7  89000801.004 6
                  21734904.043 6        46.800          39.300

  20724198.680 8  20724205.027 8
 108906374.194 8  84862144.124 7
                  20724205.137 7        50.500          43.100

  22164627.703 7  22164637.508 7  22164637.184 8
 116475787.229 7  90760471.662 5  86978748.611 8
                  22164637.578 5        45.000          35.700          50.000

  22844676.391 7  22844682.926 6
 120049609.560 7  93545141.073 5
                  22844682.711 5        45.200          31.100

  22707303.219 7
 119327717.195 7  92982637.791 4
                  22707310.070 4        42.700          28.900

  25280569.484 6  25280577.770 6
 132850291.480 6 103519735.826 3
                  25280577.176 3        37.000          19.900

  23785831.352 7  23785838.898 6
 124995374.825 7  97398961.928 4
                  23785839.012 4        42.300          26.800

  22097465.234 7
 116122924.783 7  90485430.556 6
                  22097470.973 6        45.200          37.300

  24279327.836 6  24279337.500 6  24279336.980 7
 127588626.774 6  99419802.125 4  95277275.576 7
                  24279337.176 4        38.800          24.000          44.600

 18 12  4  0  1  0.0000000  0  9G02G05G06G12G13G15G17G19G25
  21729305.789 7
 114188229.075 7  88977891.712 6
                  21729309.281 6        47.200          39.700

  20723254.789 8  20723261.023 8
 108901413.144 8  84858278.362 7
                  20723261.129 7        50.600          42.700

  22169303.078 7  22169313.004 7  22169312.301 8
 116500354.879 7  90779615.242 5  86997094.541 8
                  22169312.480 5        44.900          35.900          49.800

  22853419.102 7  22853425.609 6
 120095551.934 7  93580940.300 5
                  22853425.172 5        46.400          30.900

  22688497.484 7
 119228892.737 7  92905631.727 4
                  22688504.203 4        43.000          29.600

  25258954.602 6  25258963.258 6
 132736707.710 6 103431229.079 3
                  25258963.375 3        37.200          19.600

  23804674.484 6  23804682.895 6
 125094400.482 6  97476124.624 4
                  23804682.617 4        41.400          24.800

  22112939.570 7
 116204240.264 7  90548793.227 6
                  22112944.609 6        45.800          37.000

  24280155.539 6  24280164.820 6  24280165.285 7
 127592977.023 6  99423191.876 3  95280524.089 7
                  24280164.777 3        39.200          21.500          45.400

 18 12  4  0  1 30.0000000  0  9G02G05G06G12G13G15G17G19G25
  21723716.500 7
 114158858.135 7  88955005.226 6
                  21723720.156 6        47.000          39.700

  20722375.875 8  20722382.328 7
 108896795.181 8  84854679.940 7
                  20722382.238 7        50.300          43.600

  22174002.602 7  22174012.406 7  22174012.820 8
 116525053.301 7  90798860.716 5  87015538.126 8
                  22174012.336 5        44.000          35.600          50.100

  22862226.336 7  22862232.434 6
 120141835.055 7  93617005.059 5
                  22862232.727 5        45.900          30.900

  22669720.977 7
 119130223.202 7  92828746.367 4
                  22669728.027 4        42.500          28.300

  25237330.914 6  25237338.160 5
 132623071.326 6 103342681.243 2
                  25237339.125 2        39.200          17.400

  23823563.250 7  23823571.141 6
 125193658.347 7  97553468.272 4
                  23823571.023 4        42.300          25.800

  22128481.555 7
 116285917.300 7  90612437.646 6
                  22128487.488 6        45.000          37.500

  24281068.453 6  24281077.973 6  24281078.020 7
 127597772.776 6  99426928.826 3  95284105.315 7
                  24281077.836 3        36.500          21.500          44.700

 18 12  4  0  2  0.0000000  0  9G02G05G06G12G13G15G17G19G25
  21718133.461 7
 114129517.557 7  88932142.417 6
                  21718136.836 6        46.700          39.400

  20721561.891 8  20721568.328 8
 108892518.587 8  84851347.517 7
                  20721568.633 7        50.300          43.000

  22178727.836 7  22178737.641 7  22178737.914 8
 116549883.341 7  90818208.776 5  87034079.991 8
                  22178737.336 5        44.400          35.500          49.500

  22871098.047 7  22871104.422 6
 120188455.595 7  93653332.733 5
                  22871104.246 5        45.600          30.200

  22650974.930 7
 119031711.382 7  92751983.894 4
                  22650981.539 4        42.700          29.600

  25215696.422 6  25215702.996 4
 132509383.797 6 103254093.435 2
                  25215704.117 2        37.500          14.800

  23842495.320 6  23842503.160 6
 125293145.874 6  97630990.917 3
                  23842503.320 3        41.200          23.800

  22144093.070 7
 116367954.060 7  90676362.351 6
                  22144098.785 6        45.300          37.800

  24282064.789 5  24282074.953 6  24282074.449 7
 127603012.453 5  99431011.687 3  95288018.043 7
                  24282074.695 3        35.200          19.000          43.900

 18 12  4  0  2 30.0000000  0  9G02G05G06G12G13G15G17G19G25
  21712555.922 7
 114100208.056 7  88909303.843 6
                  21712559.539 6        47.200          39.600

  20720812.891 8  20720819.270 8
 108888581.794 8  84848279.879 7
                  20720819.465 7        50.300          42.700

  22183478.094 7  22183487.738 7  22183488.371 8
 116574845.796 7  90837659.989 5  87052720.740 8
                  22183487.164 5        44.100          35.400          49.700

  22880033.516 7  22880039.309 6
 120235410.827 7  93689921.185 5
                  22880039.629 5        45.300          30.600

  22632258.969 7
 118933359.983 7  92675346.464 5
                  22632266.516 5        42.500          30.000

  25194053.516 6  25194060.727 5
 132395647.373 6 103165467.621 2
                  25194060.363 2        38.300          16.300

  23861469.914 6  23861478.809 6
 125392860.667 6  97708690.646 4
                  23861478.176 4        39.500          25.100

  22159772.141 7
 116450348.518 7  90740565.796 6
                  22159777.730 6        45.900          37.900

  24283145.586 5  24283156.816 6  24283155.699 7
 127608694.571 5  99435439.226 3  95292261.068 7
                  24283156.285 3        34.300          19.300          43.100

 18 12  4  0  3  0.0000000  0  9G02G05G06G12G13G15G17G19G25
  21706984.719 7
 114070931.324 7  88886490.795 6
                  21706988.504 6        47.200          39.700

  20720128.414 8  20720134.531 8
 108884983.790 8  84845476.247 7
                  20720134.719 7        50.200          43.300

  22188254.109 7  22188263.836 7  22188263.805 8
 116599942.399 7  90857215.740 5  87071461.658 8
                  22188263.336 5        43.800          34.900          49.900

  22889031.703 7  22889038.152 6
 120282698.524 7  93726768.698 4
                  22889038.363 4        45.200          29.800

  22613575.344 7
 118835173.094 7  92598837.199 4
                  22613582.027 4        42.800          29.500

  25172401.820 6  25172409.039 5
 132281865.244 6 103076806.182 3
                  25172409.113 3        40.400          19.600

  23880488.500 6  23880496.375 6
 125492801.280 6  97786566.293 4
                  23880496.340 4        40.700          25.200

  22175519.234 7
 116533099.412 7  90805046.977 6
                  22175524.609 6        45.500          38.100

  24284312.273 5  24284321.332 6  24284320.730 7
 127614818.214 5  99440210.841 3  95296833.852 7
                  24284321.246 3        35.900          20.100          42.000

 18 12  4  0  3 30.0000000  0  9G02G05G06G12G13G15G17G19G25
  21701419.922 7
 114041688.834 7  88863704.426 6
                  21701423.887 6        47.600          40.300

  20719508.055 8  20719514.047 8
 108881722.977 8  84842935.356 7
                  20719514.188 7        50.600          43.100

  22193055.047 7  22193065.301 7  22193064.973 8
 116625173.825 7  90876876.531 5  87090303.255 8
                  22193064.906 5        44.100          35.000          49.500

  22898092.953 7  22898099.320 6
 120330315.337 7  93763872.684 4
                  22898098.992 4        44.600          29.600

  22594922.586 7
 118737153.168 7  92522458.052 4
                  22594929.297 4        42.900          28.200

  25150740.984 6  25150748.742 5
 132168039.502 6 102988110.747 3
                  25150749.148 3        37.700          18.600

  23899548.922 7  23899557.395 6
 125592965.268 7  97864615.994 4
                  23899557.340 4        42.000          26.500

  22191333.352 7
 116616204.582 7  90869804.212 6
                  22191339.316 6        45.300          37.100

  24285560.320 6  24285570.629 6  24285569.031 6
 127621381.663 6  99445325.162 3  95301735.080 6
                  24285570.398 3        37.300          20.100          40.900

 18 12  4  0  4  0.0000000  0  9G02G05G06G12G13G15G17G19G25
  21695861.547 7
 114012481.996 7  88840945.832 6
                  21695865.953 6        46.900          39.600

  20718951.398 8  20718957.617 8
 108878798.334 8  84840656.413 7
                  20718957.469 7        50.600          43.200

  22197882.883 7  22197892.352 7  22197892.262 8
 116650541.526 7  90896643.547 5  87109246.624 8
                  22197892.891 5        43.700          35.000          49.000

  22907216.492 7  22907222.773 6
 120378259.046 7  93801231.376 4
                  22907222.813 4        44.600          29.400

  22576302.297 7
 118639303.402 7  92446211.487 4
                  22576308.703 4        43.100          29.400

  25129073.078 6  25129080.891 6
 132054172.362 6 102899383.173 3
                  25129081.523 3        36.500          19.000

  23918651.555 6  23918660.258 6
 125693350.299 6  97942837.973 4
                  23918660.363 4        40.800          26.000

  22207215.703 7
 116699662.702 7  90934836.474 6
                  22207220.727 6        45.400          37.200

  24286894.133 6  24286903.199 6  24286902.660 7
 127628383.731 6  99450781.264 3  95306963.851 7
                  24286903.477 3        37.400          20.900          42.200

 18 12  4  0  4 30.0000000  0  9G02G05G06G12G13G15G17G19G25
  21690311.094 7
 113983312.093 7  88818216.005 6
                  21690315.113 6        46.900          40.100

  20718458.727 8  20718464.813 8
 108876208.604 8  84838638.422 7
                  20718464.699 7        50.700          42.900

  22202736.266 7  22202746.340 7  22202745.684 8
 116676046.763 7  90916517.714 5  87128292.694 8
                  22202746.242 5        44.300          35.200          49.300

  22916401.648 7  22916408.125 6
 120426526.766 7  93838842.537 4
                  22916407.750 4        44.600          29.000

  22557714.805 7
 118541627.095 7  92370100.069 4
                  22557721.520 4        43.000          28.600

  25107397.719 6  25107405.695 6
 131940266.612 6 102810625.468 3
                  25107405.938 3        38.400          19.000

  23937796.563 6  23937804.555 6
 125793954.539 6  98021230.774 4
                  23937805.367 4        41.700          24.100

  22223163.750 7
 116783471.875 7  91000142.295 6
                  22223169.301 6        45.400          36.700

  24288309.281 6  24288318.953 6  24288318.988 7
 127635823.239 6  99456578.253 3  95312519.287 7
                  24288318.746 3        37.300          21.300          43.000

 18 12  4  0  5  0.0000000  0  9G02G05G06G12G13G15G17G19G25
  21684767.484 7
 113954179.710 7  88795515.433 6
                  21684771.824 6        46.700          40.400

  20718029.070 8  20718034.980 8
 108873951.489 8  84836879.623 7
                  20718035.418 7        50.400          42.800

  22207615.742 7  22207625.852 7  22207625.535 8
 116701689.836 7  90936499.302 5  87147441.714 8
                  22207625.742 5        43.200          34.700          49.000

  22925647.375 7  22925653.516 6
 120475114.864 7  93876703.389 4
                  22925654.602 4        43.900          29.200

  22539161.039 7
 118444126.536 7  92294125.616 5
                  22539168.242 5        43.300          30.100

  25085714.070 6  25085722.570 5
 131826323.731 6 102721838.833 2
                  25085722.266 2        37.900          17.800

  23956981.313 6  23956990.230 6
 125894774.836 6  98099791.886 3
                  23956990.840 3        40.700          22.600

  22239178.555 7
 116867629.490 7  91065719.621 6
                  22239183.848 6        45.800          37.300

  24289807.758 5  24289817.453 6  24289817.152 7
 127643697.991 5  99462714.377 3  95318399.722 7
                  24289817.309 3        35.000          21.100          42.700

 18 12  4  0  5 30.0000000  0  9G02G05G06G12G13G15G17G19G25
  21679231.258 7
 113925086.583 7  88772845.460 6
                  21679235.273 6        47.200          39.700

  20717662.477 8  20717668.625 8
 108872025.388 8  84835378.756 7
                  20717668.555 7        50.100          43.400

  22212522.313 7  22212532.023 7  22212531.465 8
 116727472.092 7  90956589.320 5  87166694.640 8
                  22212532.266 5        43.000          34.500          48.900

  22934953.648 7  22934960.242 6
 120524020.632 7  93914811.725 4
                  22934960.305 4        44.500          28.900

  22520641.453 7
 118346805.104 7  92218290.756 4
                  22520648.328 4        43.100          29.200

  25064025.320 6  25064029.945 4
 131712346.338 6 102633025.233 2
                  25064032.004 2        37.900          15.600

  23976207.867 6  23976216.203 6
 125995809.364 6  98178519.953 3
                  23976216.875 3        40.000          22.500

  22255259.258 7
 116952134.146 7  91131567.367 6
                  22255264.871 6        45.300          36.800

  24291388.164 6  24291398.434 6  24291398.203 7
 127652006.732 6  99469188.649 3  95324604.208 7
                  24291398.590 3        37.100          21.700          42.100

 18 12  4  0  6  0.0000000  0  9G02G05G06G12G13G15G17G19G25
  21673702.969 7
 113896034.502 7  88750207.481 6
                  21673706.688 6        46.800          40.200

  20717359.031 8  20717365.047 8
 108870430.337 8  84834135.843 7
                  20717365.191 7        50.200          43.000

  22217454.969 7  22217465.191 7  22217465.180 8
 116753395.368 7  90976789.245 5  87186052.877 8
                  22217464.953 5        42.100          33.900          48.800

  22944320.242 7  22944327.055 6
 120573242.329 7  93953166.276 4
                  22944326.574 4        43.400          29.200

  22502156.898 7
 118249666.426 7  92142598.302 4
                  22502163.773 4        43.600          29.900

  25042330.625 6  25042337.598 5
 131598337.311 6 102544186.982 3
                  25042337.648 3        38.400          18.600

  23995474.625 6  23995483.543 6
 126097056.376 6  98257413.593 3
                  23995483.355 3        40.100          22.800

  22271405.758 7
 117036984.307 7  91197684.330 6
                  22271411.238 6        45.400          37.600

  24293052.547 6  24293061.898 6  24293061.699 7
 127660748.540 6  99476000.432 3  95331132.162 7
                  24293062.453 3        37.500          22.500          44.000

 18 12  4  0  6 30.0000000  0  9G02G05G06G12G13G15G17G19G25
  21668182.531 7
 113867024.448 7  88727602.233 6
                  21668186.414 6        46.800          40.200

  20717118.047 8  20717124.438 8
 108869164.177 8  84833149.211 7
                  20717124.281 7        50.300          42.400

  22222415.000 7  22222424.891 7  22222424.660 8
 116779460.313 7  90997099.578 5  87205516.943 8
                  22222425.102 5        42.200          33.500          48.800

  22953746.305 7  22953752.570 6
 120622776.700 7  93991764.438 4
                  22953752.688 4        43.600          28.300

  22483706.859 7
 118152713.427 7  92067050.525 4
                  22483714.027 4        42.900          29.800

  25020630.117 6  25020638.105 5
 131484299.289 6 102455326.215 2
                  25020637.727 2        38.100          17.800

  24014781.195 6  24014789.887 6
 126198513.282 6  98336470.801 4
                  24014790.242 4        40.800          25.000

  22287617.820 7
 117122177.994 7  91264068.976 6
                  22287623.266 6        45.900          37.600

  24294797.953 6  24294807.531 6  24294807.203 7
 127669921.652 6  99483148.259 3  95337982.175 7
                  24294807.625 3        38.800          22.500          43.600

 18 12  4  0  7  0.0000000  0  9G02G05G06G12G13G15G17G19G25
  21662670.328 7
 113838057.516 7  88705030.578 6
                  21662674.301 6        47.200          40.600

  20716939.430 8  20716945.715 7
 108868225.178 8  84832417.511 7
                  20716945.793 7        50.300          42.500

  22227402.094 7  22227412.277 7  22227412.230 8
 116805668.012 7  91017521.140 5  87225087.606 8
                  22227411.566 5        42.200          32.700          48.700

  22963231.180 7  22963237.613 6
 120672620.512 7  94030603.754 4
                  22963237.742 4        42.100          27.900

  22465293.750 7
 118055948.825 7  91991649.524 4
                  22465300.109 4        43.400          29.300

  24998923.875 6  24998931.910 6
 131370234.165 6 102366444.296 3
                  24998932.379 3        39.500          19.300

  24034127.461 6  24034136.523 6
 126300177.506 6  98415689.535 3
                  24034136.910 3        39.900          22.500

  22303894.367 7
 117207713.158 7  91330719.707 6
                  22303900.094 6        44.900          37.900

  24296625.734 6  24296635.355 6  24296635.355 7
 127679524.407 6  99490630.927 3  95345153.029 7
                  24296635.016 3        40.500          22.600          43.900

 18 12  4  0  7 30.0000000  0  9G02G05G06G12G13G15G17G19G25
  21657166.672 7
 113809135.033 7  88682493.566 6
                  21657170.883 6        47.000          40.400

  20716822.313 8  20716828.691 8
 108867611.873 8  84831939.600 7
                  20716828.754 7        50.000          43.000

  22232416.813 6  22232427.016 7  22232426.879 8
 116832019.301 6  91038054.623 5  87244765.527 8
                  22232426.793 5        41.900          33.300          49.000

  22972774.844 7  22972781.852 6
 120722770.998 7  94069682.019 4
                  22972781.730 4        43.000          28.300

  22446916.188 7
 117959375.357 7  91916397.478 5
                  22446922.895 5        43.600          30.400

  24977213.156 6  24977220.391 5
 131256144.060 6 102277542.850 3
                  24977220.793 3        38.600          18.300

  24053512.594 6  24053521.156 6
 126402046.735 6  98495068.010 4
                  24053521.996 4        41.100          25.000

  22320235.594 7
 117293587.638 7  91397634.850 6
                  22320241.137 6        44.400          36.600

  24298534.391 6  24298544.426 6  24298543.391 7
 127689555.099 6  99498447.005 4  95352643.436 7
                  24298543.070 4        39.100          24.600          43.400

 18 12  4  0  8  0.0000000  0 10G02G05G06G12G13G15G17G19G25G29
  21651671.258 7
 113780257.995 7  88659991.971 6
                  21651675.188 6        46.800          40.200

  20716767.672 8  20716773.695 8
 108867322.469 8  84831714.081 7
                  20716773.941 7        50.300          42.900

  22237458.734 7  22237468.469 7  22237468.715 8
 116858514.926 7  91058700.559 5  87264551.207 8
                  22237468.652 5        42.200          33.300          48.400

  22982375.758 7  22982382.426 6
 120773224.915 7  94108996.738 4
                  22982382.324 4        42.800          28.300

  22428576.023 7
 117862996.041 7  91841296.710 5
                  22428582.570 5        43.400          31.100

  24955498.320 6  24955505.352 5
 131142031.149 6 102188623.688 3
                  24955505.723 3        38.300          18.300

  24072936.047 6  24072945.633 6
 126504118.099 6  98574603.997 3
                  24072945.516 3        40.800          23.000

  22336641.109 7
 117379799.199 7  91464812.653 6
                  22336646.527 6        44.500          36.500

  24300524.180 6  24300534.043 6  24300534.066 7
 127700011.708 6  99506594.979 3  95360451.922 7
                  24300533.961 3        38.400          23.000          44.700

  24754337.586 5
 130084917.545 5
                                        30.300

 18 12  4  0  8 30.0000000  0 10G02G05G06G12G13G15G17G19G25G29
  21646185.133 7
 113751428.137 7  88637527.130 6
                  21646189.242 6        46.900          40.900

  20716773.930 8  20716780.379 8
 108867355.814 8  84831740.048 7
                  20716780.230 7        50.200          43.200

  22242528.406 6  22242538.355 7  22242538.285 8
 116885156.433 6  91079460.163 5  87284445.825 8
                  22242538.629 5        41.900          33.300          48.600

  22992033.992 7  22992040.930 6
 120823979.435 7  94148545.661 4
                  22992040.734 4        42.600          29.700

  22410272.492 7
 117766814.175 7  91766349.810 5
                  22410279.578 5        43.100          30.000

  24933778.758 6  24933786.656 5
 131027898.385 6 102099689.098 3
                  24933787.539 3        38.100          19.900

  24092398.039 6  24092407.383 6
 126606389.870 6  98654296.136 3
                  24092407.184 3        39.400          22.200

  22353110.313 7
 117466346.441 7  91532252.014 6
                  22353116.086 6        44.400          36.800

  24302594.820 6  24302604.172 6  24302604.402 7
 127710893.096 6  99515073.924 3  95368577.588 7
                  24302604.047 3        39.500          22.300          45.600

  24734316.594 4  24734326.082 5
 129979713.802 4
                                        28.900

 18 12  4  0  9  0.0000000  0 10G02G05G06G12G13G15G17G19G25G29
  21640708.570 7
 113722647.679 7  88615100.798 6
                  21640712.461 6        46.800          40.800

  20716841.672 8  20716847.961 7
 108867711.176 8  84832016.951 7
                  20716847.984 7        50.200          42.800

  22247626.242 7  22247636.625 7  22247636.137 8
 116911945.670 7  91100334.884 5  87304450.772 8
                  22247636.219 5        42.000          33.600          48.800

  23001748.992 7  23001755.754 6
 120875032.491 7  94188327.248 4
                  23001755.750 4        43.200          29.000

  22392008.813 7
 117670833.682 7  91691559.820 5
                  22392015.156 5        43.700          31.200

  24912057.367 6  24912065.953 6
 130913748.770 6 102010741.297 3
                  24912065.867 3        39.200          21.100

  24111897.375 6  24111906.770 6
 126708860.773 6  98734143.425 3
                  24111906.859 3        39.800          22.200

  22369643.953 7
 117553228.079 7  91599951.949 6
                  22369649.398 6        44.200          36.800

  24304745.820 6  24304756.121 6  24304755.719 7
 127722198.484 6  99523883.317 3  95377019.884 7
                  24304755.699 3        39.600          22.900          45.700

  24714310.273 4  24714317.949 5
 129874569.198 4
                                        28.000

 18 12  4  0  9 30.0000000  0 10G02G05G06G12G13G15G17G19G25G29
  21635241.609 7
 113693917.703 7  88592713.805 6
                  21635245.242 6        46.700          40.800

  20716970.344 8  20716976.668 7
 108868387.073 8  84832543.618 7
                  20716976.652 7        50.700          43.000

  22252753.039 7  22252762.453 7  22252762.074 8
 116938883.347 7  91121325.243 5  87324566.531 8
                  22252762.027 5        42.800          33.400          48.500

  23011521.211 7  23011527.480 6
 120926381.369 7  94228339.298 4
                  23011527.352 4        43.900          29.800

  22373782.664 7
 117575057.290 7  91616928.847 5
                  22373789.367 5        43.500          30.800

  24890332.641 6  24890341.000 6
 130799584.543 6 101921782.151 3
                  24890341.672 3        37.100          19.300

  24131434.320 6  24131442.816 5
 126811527.924 6  98814143.666 3
                  24131444.082 3        39.800          21.500

  22386239.945 7
 117640441.979 7  91667910.788 6
                  22386245.969 6        43.900          36.500

  24306977.797 6  24306987.445 6  24306986.828 7
 127733925.856 6  99533021.486 4  95385777.304 7
                  24306987.117 4        39.900          25.800          44.900

  24694313.344 4  24694320.523 5

                                        25.300

 18 12  4  0 10  0.0000000  0 10G02G05G06G12G13G15G17G19G25G29
  21629784.219 7
 113665239.426 7  88570367.084 6
                  21629787.867 6        46.700          40.400

  20717159.586 8  20717165.727 8
 108869381.482 8  84833318.472 7
                  20717165.813 7        50.300          42.900

  22257906.945 7  22257917.355 7  22257916.906 8
 116965970.373 7  91142431.984 5  87344793.796 8
                  22257917.348 5        42.800          34.200          48.500

  23021347.195 7  23021354.676 6
 120978022.590 7  94268579.194 4
                  23021354.320 4        42.700          29.000

  22355596.734 7
 117479487.735 7  91542459.066 5
                  22355603.520 5        44.000          31.800

  24868604.695 6  24868613.820 6
 130685407.640 6 101832813.122 2
                  24868614.457 2        36.700          17.800

  24151007.758 6  24151017.551 6
 126914388.747 6  98894294.802 3
                  24151017.652 3        38.100          20.900

  22402898.836 7
 117727985.817 7  91736126.709 5
                  22402905.137 5        44.100          35.300

  24309289.555 6  24309299.027 6  24309299.031 7
 127746073.447 6  99542487.070 4  95394848.475 7
                  24309298.934 4        41.600          27.100          46.000

  24674329.703 4  24674336.703 5
 129664466.829 4
                                        26.800

 18 12  4  0 10 30.0000000  0  9G02G05G06G12G13G15G17G19G25
  21624336.477 7
 113636613.769 7  88548061.355 6
                  21624340.941 6        46.800          40.900

  20717408.930 8  20717414.988 8
 108870692.788 8  84834340.260 7
                  20717415.445 7        50.400          43.200

  22263090.203 7  22263100.492 7  22263099.777 8
 116993207.821 7  91163655.951 5  87365133.438 8
                  22263099.969 5        43.000          34.400          48.300

  23031230.063 7  23031236.180 6
 121029953.314 7  94309044.647 5
                  23031236.559 5        43.700          30.200

  22337450.250 7
 117384128.001 7  91468152.790 5
                  22337457.305 5        43.800          31.800

  24846875.656 6  24846884.605 6
 130571220.589 6 101743836.197 3
                  24846885.215 3        36.300          19.600

  24170618.227 6  24170627.672 6
 127017441.072 6  98974595.183 3
                  24170628.281 3        37.900          20.100

  22419620.656 7
 117815857.750 7  91804598.299 6
                  22419626.441 6        44.000          36.100

  24311680.508 7  24311690.324 6  24311689.625 7
 127758639.408 7  99552278.701 4  95404232.135 7
                  24311690.004 4        42.200          25.800          45.200

 18 12  4  0 11  0.0000000  0  9G02G05G06G12G13G15G17G19G25
  21618899.711 7
 113608042.406 7  88525797.940 6
                  21618903.738 6        46.600          40.500

  20717718.727 8  20717725.023 8
 108872319.483 8  84835607.794 7
                  20717724.785 7        50.600          42.700

  22268302.000 7  22268312.051 7  22268312.328 8
 117020596.712 7  91184997.906 5  87385586.127 8
                  22268312.047 5        43.000          34.400          49.000

  23041166.445 7  23041173.082 6
 121082170.270 7  94349733.153 4
                  23041173.031 4        43.900          29.600

  22319344.469 7
 117288981.196 7  91394012.411 5
                  22319351.629 5        44.000          32.700

  24825145.234 6  24825154.004 6
 130457025.970 6 101654853.382 3
                  24825154.746 3        37.900          20.400

  24190264.609 6  24190274.117 6
 127120682.344 6  99055042.764 3
                  24190274.539 3        38.400          20.100

  22436404.250 7
 117904055.579 7  91873323.842 5
                  22436409.930 5        43.900          35.900

  24314151.055 7  24314160.352 6  24314161.113 7
 127771622.079 7  99562395.024 4  95413926.944 7
                  24314160.582 4        42.700          26.000          45.300

 18 12  4  0 11 30.0000000  0  9G02G05G06G12G13G15G17G19G25
  21613474.102 7
 113579526.822 7  88503577.997 6
                  21613477.480 6        46.900          40.900

  20718087.578 8  20718093.938 8
 108874259.864 8  84837119.779 7
                  20718094.168 7        50.100          42.500

  22273543.320 7  22273552.930 7  22273553.000 8
 117048137.964 7  91206458.564 5  87406152.590 8
                  22273553.008 5        42.700          33.400          48.400

  23051157.078 7  23051163.637 6
 121134670.546 7  94390642.409 5
                  23051163.895 5        44.000          30.700

  22301279.664 7
 117194050.108 7  91320040.145 5
                  22301286.563 5        44.200          32.700

  24803414.375 6  24803423.160 6
 130342826.111 6 101565866.444 3
                  24803423.105 3        37.900          21.100

  24209946.953 6  24209956.215 6
 127224110.020 6  99135635.588 3
                  24209956.023 3        39.400          21.500

  22453249.023 7
 117992577.105 7  91942301.626 5
                  22453255.016 5        43.700          35.400

  24316700.820 6  24316710.574 6  24316710.250 7
 127785019.574 6  99572834.619 4  95423931.540 7
                  24316710.023 4        41.600          26.100          44.500

 18 12  4  0 12  0.0000000  0 10G02G05G06G12G13G15G17G19G25G29
  21608057.867 7
 113551068.289 7  88481402.522 6
                  21608061.867 6        46.500          40.400

  20718516.555 8  20718522.738 8
 108876512.993 8  84838875.459 7
                  20718522.734 7        50.000          42.800

  22278812.984 7  22278823.313 7  22278823.301 8
 117075832.975 7  91228039.064 5  87426833.898 8
                  22278823.156 5        43.000          33.800          48.400

  23061201.156 7  23061207.734 6
 121187451.708 7  94431770.532 5
                  23061207.281 5        45.200          31.700

  22283256.711 7
 117099338.214 7  91246238.670 5
                  22283263.180 5        44.400          31.800

  24781681.453 5  24781690.836 6
 130228623.304 5 101476877.306 3
                  24781690.887 3        34.700          19.600

  24229664.133 6  24229673.176 6
 127327722.058 6  99216372.111 3
                  24229673.023 3        38.700          20.900

  22470155.508 7
 118081420.737 7  92011530.381 5
                  22470161.320 5        43.800          35.500

  24319327.883 6  24319338.543 6  24319338.887 7
 127798830.413 6  99583596.279 4  95434244.812 7
                  24319338.277 4        40.200          24.100          45.300

  24594521.086 5  24594528.418 5
 129245065.418 5
                                        32.600

 18 12  4  0 12 30.0000000  0 10G02G05G06G12G13G15G17G19G25G29
  21602653.844 7
 113522666.442 7  88459271.218 6
                  21602657.418 6        46.800          40.000

  20719003.766 8  20719010.281 8
 108879075.257 8  84840872.030 7
                  20719010.441 7        50.200          42.500

  22284112.102 7  22284122.355 7  22284122.742 8
 117103681.053 7  91249738.838 5  87447629.497 8
                  22284121.828 5        43.000          34.300          49.100

  23071297.492 7  23071304.156 7
 121240509.070 7  94473113.891 5
                  23071304.918 5        44.300          31.700

  22265275.555 7
 117004846.571 7  91172608.831 5
                  22265282.473 5        44.400          32.900

  24759949.664 6  24759957.930 6
 130114418.443 6 101387886.506 3
                  24759957.957 3        36.800          20.600

  24249414.922 6  24249423.648 6
 127431514.329 6  99297249.038 3
                  24249424.195 3        38.900          21.700

  22487122.281 7
 118170582.535 7  92081007.050 5
                  22487128.375 5        43.200          35.200

  24322035.750 6  24322044.566 6  24322044.230 7
 127813051.214 6  99594677.413 4  95444864.219 7
                  24322044.680 4        40.800          26.500          44.900

  24574604.383 5  24574611.297 5
 129140399.518 5 100628921.779 2
                  24574610.797 2        35.400          17.800

 18 12  4  0 13  0.0000000  0 10G02G05G06G12G13G15G17G19G25G29
  21597260.172 7
 113494324.350 7  88437186.460 6
                  21597264.363 6        46.700          40.700

  20719550.648 8  20719557.051 8
 108881946.737 8  84843109.540 7
                  20719556.973 7        51.000          42.600

  22289441.508 7  22289451.688 7  22289451.680 8
 117131684.728 7  91271559.833 5  87468541.264 8
                  22289451.695 5        43.300          34.500          48.200

  23081446.063 7  23081452.680 7
 121293840.680 7  94514670.942 5
                  23081452.961 5        44.400          31.400

  22247337.156 7
 116910579.991 7  91099154.347 5
                  22247344.141 5        44.700          34.000

  24738217.617 6  24738225.488 6
 130000215.702 6 101298897.289 3
                  24738226.066 3        36.900          20.100

  24269200.102 6  24269209.277 6
 127535486.108 6  99378265.849 3
                  24269209.422 3        39.400          21.300

  22504150.289 7
 118260062.135 7  92150731.367 5
                  22504155.617 5        44.500          35.400

  24324818.484 6  24324828.969 6  24324828.672 7
 127827681.645 6  99606077.725 4  95455789.490 7
                  24324828.734 4        39.200          25.500          45.500

  24554702.438 6  24554707.961 5
 129035812.194 6 100547425.177 2
                  24554708.203 2        37.200          16.300

 18 12  4  0 13 30.0000000  0 10G02G05G06G12G13G15G17G19G25G29
  21591878.633 7
 113466044.954 7  88415150.540 6
                  21591882.910 6        46.800          39.900

  20720155.898 8  20720162.176 8
 108885127.295 8  84845587.879 7
                  20720162.371 7        50.400          42.600

  22294800.555 7  22294810.910 7  22294810.246 8
 117159846.531 7  91293504.059 5  87489571.136 8
                  22294810.699 5        42.900          34.800          48.100

  23091646.984 7  23091653.664 7
 121347445.542 7  94556440.922 5
                  23091653.574 5        44.400          32.100

  22229441.992 7
 116816543.068 7  91025878.831 5
                  22229449.633 5        44.100          33.800

  24716486.563 5  24716495.090 6
 129886018.660 5 101209912.603 3
                  24716494.844 3        35.800          20.400

  24289018.820 6  24289028.840 6
 127639636.399 6  99459421.717 3
                  24289029.145 3        38.600          20.100

  22521237.336 7
 118349858.762 7  92220702.701 5
                  22521243.293 5        43.400          34.700

  24327680.930 6  24327690.914 6  24327690.664 7
 127842721.274 6  99617796.920 3  95467020.358 7
                  24327690.473 3        38.800          22.800          45.300

  24534816.078 6  24534822.332 5
 128931307.051 6 100465992.587 2
                  24534822.340 2        38.000          16.900

 18 12  4  0 14  0.0000000  0 10G02G05G06G12G13G15G17G19G25G29
  21586509.305 7
 113437828.552 7  88393163.731 6
                  21586513.496 6        46.500          40.500

  20720819.391 8  20720825.770 8
 108888614.277 8  84848304.989 7
                  20720825.574 7        50.100          42.600

  22300189.648 7  22300199.852 7  22300199.688 8
 117188166.602 7  91315571.594 5  87510719.190 8
                  22300199.891 5        43.100          34.600          48.200

  23101898.867 7  23101905.688 6
 121401319.470 7  94598420.560 5
                  23101905.660 5        43.900          31.200

  22211592.359 7
 116722737.422 7  90952783.526 5
                  22211599.246 5        44.700          34.500

  24694756.523 5  24694765.930 6
 129771828.861 5 101120933.550 3
                  24694765.953 3        35.300          20.600

  24308872.867 6  24308881.156 6
 127743961.682 6  99540713.966 3
                  24308881.723 3        38.400          19.300

  22538385.516 7
 118439969.499 7  92290918.807 5
                  22538390.855 5        43.900          34.700

  24330620.289 6  24330630.156 6  24330630.074 7
 127858167.413 6  99629832.816 3  95478554.757 7
                  24330630.242 3        37.700          22.500          44.600

  24514944.820 6  24514951.117 5
 128826885.588 6 100384625.213 2
                  24514951.543 2        37.400          16.900

 18 12  4  0 14 30.0000000  0 10G02G05G06G12G13G15G17G19G25G29
  21581152.156 7
 113409676.258 7  88371226.870 6
                  21581156.082 6        46.800          40.400

  20721541.133 8  20721546.996 8
 108892405.802 8  84851259.411 7
                  20721547.469 7        50.600          42.400

  22305608.805 7  22305619.020 7  22305619.270 8
 117216645.606 7  91337762.992 5  87531985.935 8
                  22305619.156 5        42.900          34.600          48.800

  23112201.070 7  23112207.824 6
 121455459.063 7  94640607.207 5
                  23112207.840 5        45.000          31.300

  22193785.852 7
 116629165.744 7  90879870.536 5
                  22193792.754 5        45.200          34.200

  24673029.516 6  24673037.680 6
 129657648.396 6 101031961.745 3
                  24673038.230 3        37.100          21.700

  24328758.086 6  24328767.004 5
 127848459.513 6  99622140.650 3
                  24328767.227 3        38.500          19.000

  22555592.141 7
 118530391.932 7  92361377.800 5
                  22555597.375 5        43.800          34.200

  24333637.039 6  24333646.129 6  24333646.039 7
 127874017.841 6  99642183.759 4  95490391.100 7
                  24333645.938 4        37.900          25.100          44.700

  24495089.609 6  24495096.324 5
 128722550.492 6 100303325.104 2
                  24495096.930 2        36.300          17.400

 18 12  4  0 15  0.0000000  0 10G02G05G06G12G13G15G17G19G25G29
  21575807.711 7
 113381590.984 7  88349342.252 6
                  21575811.531 6        46.800          40.200

  20722320.328 8  20722326.438 8
 108896501.806 8  84854451.092 7
                  20722326.586 7        50.700          43.000

  22311058.852 7  22311069.301 7  22311069.371 8
 117245285.876 7  91360080.034 5  87553373.106 8
                  22311069.051 5        43.700          34.900          48.200

  23122553.953 7  23122561.164 7
 121509862.709 7  94682999.618 5
                  23122561.383 5        44.700          31.900

  22176025.211 7
 116535832.639 7  90807143.447 5
                  22176032.172 5        45.500          34.900

  24651304.742 6  24651311.891 6
 129543481.055 6 100943000.196 3
                  24651312.391 3        37.700          20.600

  24348675.977 5  24348685.125 5
 127953128.395 5  99703700.647 2
                  24348685.395 2        35.600          16.300

  22572858.133 7
 118621125.124 7  92432078.929 5
                  22572863.523 5        43.800          34.800

  24336730.148 6  24336739.895 6  24336738.758 7
 127890272.068 6  99654849.371 3  95502528.936 7
                  24336739.102 3        37.600          22.000          43.900

  24475252.500 5  24475260.473 5
 128618305.208 5 100222095.046 2
                  24475260.109 2        34.500          16.900

 18 12  4  0 15 30.0000000  0 10G02G05G06G12G13G15G17G19G25G29
  21570475.891 7
 113353572.980 7  88327510.027 6
                  21570480.547 6        46.500          40.800

  20723157.383 8  20723163.648 8
 108900899.544 8  84857877.885 7
                  20723163.480 7        50.800          43.000

  22316540.422 7  22316549.969 7  22316550.234 8
 117274087.508 7  91382522.783 5  87574880.720 8
                  22316549.977 5        44.700          35.100          48.800

  23132956.461 7  23132962.680 7
 121564526.221 7  94725594.517 5
                  23132963.102 5        43.800          30.900

  22158310.234 7
 116442739.907 7  90734603.661 5
                  22158316.910 5        45.500          34.500

  24629580.992 6  24629590.176 6
 129429328.000 6 100854049.756 3
                  24629589.438 3        36.300          20.400

  24368626.648 5  24368635.258 5
 128057965.519 5  99785391.786 2
                  24368635.477 2        35.800          16.900

  22590182.984 7
 118712166.248 7  92503020.015 5
                  22590188.098 5        43.700          34.500

  24339898.906 6  24339908.441 6  24339908.559 7
 127906927.176 6  99667827.331 3  95514966.152 7
                  24339908.703 3        37.300          22.000          43.900

  24455432.914 5  24455439.746 5
 128514151.388 5 100140936.160 2
                  24455440.340 2        34.600          16.300

 18 12  4  0 16  0.0000000  0 10G02G05G06G12G13G15G17G19G25G29
  21565157.094 7
 113325623.680 7  88305731.339 6
                  21565161.598 6        47.000          40.600

  20724051.266 8  20724057.598 8
 108905596.972 8  84861538.218 7
                  20724057.719 7        50.400          43.100

  22322051.266 7  22322062.047 7  22322061.254 8
 117303051.237 7  91405091.882 5  87596509.435 8
                  22322061.648 5        44.500          35.600          48.400

  23143406.805 7  23143414.195 7
 121619446.595 7  94768389.554 5
                  23143414.090 5        43.900          30.900

  22140640.820 7
 116349890.139 7  90662253.188 5
                  22140648.441 5        45.500          34.000

  24607862.000 6  24607871.391 6
 129315191.707 6 100765112.400 3
                  24607870.914 3        37.600          22.300

  24388607.875 5  24388615.371 5
 128162967.798 5  99867211.582 2
                  24388616.875 2        35.600          14.800

  22607565.703 7
 118803512.631 7  92574198.952 5
                  22607570.723 5        44.100          34.500

  24343144.586 6  24343154.176 6  24343153.848 7
 127923980.931 6  99681115.952 3  95527701.068 7
                  24343153.742 3        38.200          22.000          43.800

  24435631.430 5  24435638.813 5
 128410091.167 5 100059850.311 2
                  24435638.688 2        35.000          17.400

 18 12  4  0 16 30.0000000  0 10G02G05G06G12G13G15G17G19G25G29
  21559852.141 7
 113297744.915 7  88284007.627 6
                  21559856.234 6        46.700          40.000

  20725001.898 8  20725008.270 8
 108910593.368 8  84865431.496 7
                  20725008.273 7        51.300          42.900

  22327594.992 7  22327604.840 7  22327604.578 8
 117332178.815 7  91427788.661 5  87618260.507 8
                  22327604.418 5        44.900          35.500          48.500

  23153906.641 7  23153913.156 7
 121674621.131 7  94811382.671 5
                  23153913.801 5        44.900          31.800

  22123019.461 7
 116257287.295 7  90590095.137 5
                  22123026.684 5        45.200          34.300

  24586146.578 6  24586154.621 6
 129201075.393 6 100676190.606 3
                  24586154.688 3        38.600          22.200

  24408619.547 5  24408628.578 5
 128268133.272 5  99949158.486 2
                  24408629.102 2        33.100          14.800

  22625005.789 7
 118895163.022 7  92645614.777 5
                  22625011.797 5        43.700          34.000

  24346465.469 6  24346475.336 6  24346475.082 7
 127941432.262 6  99694714.373 3  95540732.871 7
                  24346475.078 3        38.600          23.000          43.900

  24415847.273 5  24415854.758 5
 128306127.772 5  99978839.931 2
                  24415855.637 2        35.500          17.400

 18 12  4  0 17  0.0000000  0 10G02G05G06G12G13G15G17G19G25G29
  21554560.938 7
 113269937.872 7  88262339.802 6
                  21554564.547 6        47.300          40.900

  20726009.047 8  20726015.543 8
 108915886.806 8  84869556.244 7
                  20726015.531 7        51.100          42.700

  22333168.836 7  22333178.945 7  22333178.605 8
 117361470.972 7  91450613.673 5  87640134.464 8
                  22333178.547 5        44.300          34.600          48.800

  23164453.523 7  23164460.547 6
 121730046.908 7  94854571.538 5
                  23164460.375 5        43.800          31.400

  22105446.023 7
 116164934.210 7  90518131.699 5
                  22105452.488 5        45.700          35.200

  24564434.508 6  24564443.043 6
 129086980.964 6 100587285.859 3
                  24564442.672 3        37.900          21.100

  24428662.836 5  24428673.238 5
 128373459.427 5
                                        33.500

  22642503.859 7
 118987114.877 7  92717265.504 5
                  22642509.395 5        43.700          35.000

  24349861.664 6  24349871.156 6  24349870.887 7
 127959278.889 6  99708620.783 3  95554059.869 7
                  24349871.098 3        38.400          22.300          42.100

  24396083.227 6  24396089.313 5
 128202263.475 6  99897906.725 2
                  24396090.430 2        36.800          16.900

 18 12  4  0 17 30.0000000  0 10G02G05G06G12G13G15G17G19G25G29
  21549283.695 7
 113242203.589 7  88240728.650 6
                  21549287.172 6        46.700          40.200

  20727072.656 8  20727079.156 7
 108921475.046 8  84873910.701 7
                  20727078.695 7        50.700          42.300

  22338774.133 7  22338784.477 7  22338784.457 8
 117390928.382 7  91473567.489 5  87662131.874 8
                  22338784.348 5        44.100          34.600          48.800

  23175048.000 7  23175055.680 7
 121785720.638 7  94897953.603 5
                  23175055.664 5        44.000          32.300

  22087919.297 7
 116072833.215 7  90446364.697 5
                  22087926.156 5        45.700          35.200

  24542728.117 6  24542736.113 6
 128972910.424 6 100498399.746 3
                  24542736.457 3        38.300          22.200

  24448735.547 4  24448745.125 4
 128478943.829 4
                                        27.600

  22660058.641 7
 119079365.763 7  92789149.241 5
                  22660064.012 5        43.900          34.000

  24353331.797 6  24353341.914 6  24353342.527 7
 127977518.432 6  99722833.353 3  95567680.235 7
                  24353341.418 3        38.100          21.800          42.500

  24376337.930 6  24376344.285 5
 128098500.538 6  99817052.480 2
                  24376344.207 2        37.600          17.400

 18 12  4  0 18  0.0000000  0  9G02G05G06G12G13G15G19G25G29
  21544020.031 7
 113214544.828 7  88219176.362 6
                  21544024.148 6        47.000          40.600

  20728192.023 8  20728198.410 8
 108927357.578 8  84878494.493 7
                  20728198.320 7        50.500          42.400

  22344411.641 7  22344422.359 7  22344421.938 8
 117420553.119 7  91496651.665 5  87684254.191 8
                  22344422.094 5        44.500          34.700          49.200

  23185689.906 7  23185696.027 6
 121841639.823 7  94941526.948 5
                  23185695.777 5        44.000          30.900

  22070441.867 7
 115980988.517 7  90374797.388 5
                  22070448.781 5        45.800          35.200

  24521026.781 6  24521035.047 6
 128858867.812 6 100409535.400 3
                  24521034.793 3        38.800          22.800

  22677670.391 7
 119171914.464 7  92861265.041 5
                  22677675.602 5        43.800          34.000

  24356877.906 6  24356887.145 6  24356887.055 6
 127996150.021 6  99737351.420 3  95581593.401 6
                  24356887.500 3        38.500          21.500          41.900

  24356612.242 6  24356618.313 5
 127994841.959 6  99736279.559 2
                  24356618.879 2        36.700          16.900

 18 12  4  0 18 30.0000000  0  9G02G05G06G12G13G15G19G25G29
  21538771.180 7
 113186962.641 7  88197683.738 6
                  21538775.211 6        47.100          40.400

  20729367.063 8  20729373.414 8
 108933532.897 8  84883306.415 7
                  20729373.445 7        51.700          42.800

  22350080.930 7  22350091.207 7  22350090.699 8
 117450345.813 7  91519866.733 5  87706501.979 8
                  22350091.508 5        44.100          34.700          48.400

  23196376.570 7  23196383.586 6
 121897801.286 7  94985289.075 5
                  23196383.656 5        44.100          31.500

  22053013.547 7
 115889402.632 7  90303431.769 5
                  22053020.348 5        45.800          34.900

  24499330.328 6  24499338.820 6
 128744854.613 6 100320693.970 3
                  24499338.773 3        38.700          22.500

  22695337.570 7
 119264758.406 7  92933610.901 5
                  22695343.289 5        44.300          34.000

  24360497.711 6  24360507.164 6  24360506.613 7
 128015171.324 6  99752173.210 3  95595797.558 7
                  24360506.719 3        38.100          21.700          42.600

  24336907.477 6  24336913.156 5
 127891290.944 6  99655590.421 2
                  24336913.398 2        37.500          16.300

 18 12  4  0 19  0.0000000  0  9G02G05G06G12G13G15G19G25G29
  21533537.539 7
 113159458.419 7  88176251.868 6
                  21533541.445 6        47.200          41.100

  20730597.547 8  20730603.695 7
 108939998.985 8  84888344.913 7
                  20730603.945 7        50.500          42.600

  22355782.945 7  22355792.695 7  22355793.035 8
 117480307.475 7  91543213.484 5  87728875.919 8
                  22355792.715 5        44.500          34.700          48.800

  23207109.367 7  23207115.555 6
 121954201.607 7  95029237.327 5
                  23207116.082 5        44.100          30.400

  22035635.172 7
 115798078.278 7  90232269.924 5
                  22035641.973 5        45.800          35.100

  24477640.484 6  24477648.367 6
 128630873.447 6 100231877.469 3
                  24477648.383 3        38.900          22.500

  22713061.523 7
 119357895.153 7  93006184.938 5
                  22713066.773 5        44.200          35.000

  24364190.750 6  24364201.023 6  24364200.172 7
 128034580.238 6  99767297.012 3  95610291.220 7
                  24364200.629 3        37.600          21.100          43.400

  24317223.375 6  24317229.309 5
 127787849.308 6  99574986.536 2
                  24317229.152 2        37.100          17.800

 18 12  4  0 19 30.0000000  0  9G02G05G06G12G13G15G19G25G29
  21528318.578 7
 113132032.850 7  88154881.289 6
                  21528322.516 6        47.200          40.700

  20731882.859 8  20731889.309 8
 108946753.673 8  84893608.301 7
                  20731889.270 7        51.600          42.900

  22361516.242 7  22361526.480 7  22361526.559 8
 117510438.422 7  91566692.092 5  87751376.268 8
                  22361525.984 5        43.700          34.000          48.300

  23217886.867 7  23217893.609 6
 122010837.909 7  95073369.439 4
                  23217893.520 4        43.300          29.400

  22018306.617 7
 115707018.080 7  90161313.925 5
                  22018313.629 5        45.700          34.600

  24455957.180 6  24455965.266 6
 128516926.369 6 100143087.537 3
                  24455965.129 3        38.700          23.500

  22730839.922 7
 119451322.721 7  93078985.563 5
                  22730845.316 5        43.700          34.100

  24367957.367 6  24367967.297 6  24367966.605 7
 128054374.148 6  99782720.794 3  95625072.361 7
                  24367966.766 3        37.100          21.500          43.600

  24297559.453 6  24297566.645 5
 127684519.435 6  99494469.785 3
                  24297566.668 3        37.800          19.000

 18 12  4  0 20  0.0000000  0  9G02G05G06G12G13G15G19G25G29
  21523114.922 7
 113104688.081 7  88133573.682 6
                  21523118.977 6        47.400          40.400

  20733223.055 8  20733229.730 8
 108953795.350 8  84899095.311 7
                  20733229.258 7        51.600          42.600

  22367282.539 7  22367292.586 7  22367293.020 8
 117540740.103 7  91590303.767 5  87774004.112 8
                  22367292.586 5        43.000          33.500          48.800

  23228708.422 7  23228715.668 6
 122067707.050 7  95117682.994 4
                  23228715.648 4        43.200          28.900

  22001029.672 7
 115616225.282 7  90090566.284 5
                  22001036.426 5        45.600          34.900

  24434279.977 6  24434288.930 6
 128403015.943 6 100054326.192 3
                  24434289.496 3        38.600          22.800

  22748673.617 7
 119545038.644 7  93152010.891 5
                  22748679.297 5        44.000          33.600

  24371796.102 6  24371807.586 6  24371806.809 7
 128074551.551 6  99798443.441 3  95640139.826 7
                  24371807.281 3        38.600          22.800          44.100

  24277918.445 6  24277925.832 5
 127581304.209 6  99414042.354 3
                  24277925.742 3        38.100          20.600

 18 12  4  0 20 30.0000000  0  9G02G05G06G12G13G15G19G25G29
  21517927.398 7
 113077426.294 7  88112330.717 6
                  21517931.195 6        47.300          41.200

  20734617.484 8  20734623.848 7
 108961123.612 8  84904805.630 7
                  20734623.961 7        51.200          42.600

  22373081.844 7  22373091.809 7  22373091.609 8
 117571214.331 7  91614049.884 5  87796760.816 8
                  22373091.441 5        43.400          33.700          48.500

  23239574.164 7  23239581.031 6
 122124806.626 7  95162176.122 4
                  23239580.676 4        43.100          28.500

  21983803.633 7
 115525703.715 7  90020030.001 5
                  21983810.949 5        45.400          35.200

  24412612.242 6  24412620.340 6
 128289145.405 6  99965595.970 3
                  24412620.102 3        39.300          22.500

  22766561.992 7
 119639041.693 7  93225259.956 5
                  22766567.723 5        43.600          34.100

  24375709.109 6  24375719.648 6  24375719.141 7
 128095111.020 6  99814463.781 3  95655492.654 7
                  24375719.434 3        39.300          22.800          43.600

  24258298.758 6  24258306.590 6
 127478206.560 6  99333706.588 3
                  24258306.813 3        38.800          19.300

 18 12  4  0 21  0.0000000  0  9G02G05G06G12G13G15G19G25G29
  21512755.500 7
 113050249.052 7  88091153.623 7
                  21512759.434 7        47.400          42.000

  20736066.305 8  20736072.328 8
 108968736.340 8  84910737.612 7
                  20736072.492 7        51.200          42.400

  22378913.305 7  22378924.016 7  22378923.816 8
 117601861.966 7  91637931.098 5  87819646.960 8
                  22378923.977 5        43.600          34.700          48.300

  23250482.836 7  23250490.004 6
 122182133.584 7  95206846.409 4
                  23250489.773 4        42.800          28.200

  21966630.633 7
 115435456.481 7  89949707.475 5
                  21966637.543 5        44.900          35.200

  24390951.078 6  24390959.367 6
 128175317.378 6  99876898.814 3
                  24390959.559 3        39.000          22.200

  22784503.961 7
 119733329.419 7  93298730.834 5
                  22784510.168 5        43.900          33.600

  24379693.555 6  24379704.035 6  24379703.871 7
 128116050.493 6  99830780.183 4  95671129.210 7
                  24379704.344 4        40.200          24.000          43.200

  24238703.266 6  24238710.461 6
 127375228.801 6  99253464.175 3
                  24238710.945 3        39.000          20.100

 18 12  4  0 21 30.0000000  0  9G02G05G06G12G13G15G19G25G29
  21507599.828 7
 113023156.724 7  88070042.695 6
                  21507603.867 6        47.300          40.900

  20737568.672 8  20737574.773 8
 108976631.006 8  84916889.293 7
                  20737574.840 7        51.900          43.400

  22384778.578 7  22384789.199 7  22384788.762 8
 117632683.147 7  91661947.585 5  87842662.762 8
                  22384788.773 5        42.700          34.000          48.200

  23261434.828 7  23261441.602 6
 122239683.837 7  95251690.710 4
                  23261441.059 4        43.000          28.500

  21949509.109 7
 115345484.934 7  89879599.776 5
                  21949516.355 5        45.300          34.900

  24369298.734 6  24369306.535 6
 128061533.040 6  99788235.693 3
                  24369307.219 3        39.800          22.600

  22802500.133 7
 119827898.662 7  93372421.095 5
                  22802506.316 5        43.600          34.000

  24383750.625 6  24383760.793 6  24383760.430 7
 128137366.843 6  99847390.274 3  95687047.214 7
                  24383760.258 3        39.600          23.900          43.400

  24219131.250 6  24219137.738 6
 127272373.529 6  99173317.172 3
                  24219138.234 3        39.200          22.600

 18 12  4  0 22  0.0000000  0  9G02G05G06G12G13G15G19G25G29
  21502460.656 7
 112996151.119 7  88048999.366 6
                  21502465.281 6        47.700          41.400

  20739124.164 8  20739130.477 8
 108984806.339 8  84923259.686 7
                  20739130.590 7        51.000          42.700

  22390676.813 7  22390687.180 7  22390687.402 8
 117663678.997 7  91686100.156 5  87865808.969 8
                  22390686.828 5        42.400          33.400          48.200

  23272428.320 7  23272434.840 6
 122297454.398 7  95296706.666 4
                  23272435.273 4        42.700          29.000

  21932441.594 7
 115255792.581 7  89809709.644 5
                  21932448.504 5        45.600          35.700

  24347654.984 6  24347663.004 6
 127947795.244 6  99699608.890 3
                  24347663.656 3        39.200          22.800

  22820549.461 7
 119922747.432 7  93446329.151 5
                  22820555.379 5        43.700          34.100

  24387878.219 6  24387888.520 6  24387886.902 6
 128159058.216 6  99864292.638 3  95703245.263 6
                  24387888.598 3        37.700          22.200          41.700

  24199582.516 6  24199588.840 6
 127169643.025 6  99093267.435 3
                  24199589.484 3        40.600          22.600

 18 12  4  0 22 30.0000000  0  9G02G05G06G12G13G15G19G25G29
  21497339.156 7
 112969235.150 7  88028025.887 6
                  21497343.223 6        47.700          41.400

  20740733.008 8  20740739.805 8
 108993261.776 8  84929848.345 7
                  20740739.828 7        51.600          42.600

  22396609.078 7  22396619.355 7  22396619.578 7
 117694851.920 7  91710390.727 5  87889087.426 7
                  22396618.859 5        43.200          33.000          47.900

  23283463.383 7  23283470.438 6
 122355443.954 7  95341893.279 4
                  23283470.945 4        43.100          28.300

  21915427.688 7
 115166384.025 7  89740040.630 5
                  21915434.660 5        45.800          35.000

  24326021.000 6  24326029.293 6
 127834108.111 6  99611021.544 4
                  24326029.902 4        40.200          25.300

  22838651.555 7
 120017874.871 7  93520454.357 5
                  22838657.750 5        43.300          33.200

  24392077.352 6  24392087.262 6  24392086.738 7
 128181123.947 6  99881486.707 3  95719722.927 7
                  24392086.898 3        37.700          21.100          42.200

  24180057.750 6  24180064.336 6
 127067040.967 6  99013317.780 3
                  24180064.941 3        40.800          23.800

 18 12  4  0 23  0.0000000  0  9G02G05G06G12G13G15G19G25G29
  21492234.453 8
 112942409.644 8  88007122.865 6
                  21492238.582 6        48.200          41.300

  20742395.164 8  20742401.387 8
 109001995.261 8  84936653.642 7
                  20742401.684 7        51.900          42.600

  22402574.789 7  22402584.738 7  22402585.352 8
 117726202.414 7  91734819.619 5  87912498.446 8
                  22402585.051 5        42.900          33.600          48.200

  23294539.492 7  23294545.859 6
 122413648.611 7  95387247.500 4
                  23294546.238 4        42.600          26.900

  21898468.047 7
 115077261.286 7  89670594.340 5
                  21898475.262 5        45.700          34.900

  24304396.805 6  24304404.809 6
 127720473.145 6  99522474.845 3
                  24304405.105 3        39.500          21.700

  22856806.406 7
 120113278.047 7  93594794.415 5
                  22856812.371 5        43.200          33.600

  24396347.352 6  24396357.020 6  24396356.426 7
 128203561.219 6  99898970.260 3  95736478.006 7
                  24396357.027 3        39.900          21.800          42.400

  24160558.203 6  24160564.375 6
 126964569.679 6  98933470.018 3
                  24160564.742 3        40.900          23.000

 18 12  4  0 23 30.0000000  0  9G02G05G06G12G13G15G19G25G29
  21487146.984 7
 112915676.114 7  87986291.516 6
                  21487150.988 6        47.300          40.900

  20744109.586 8  20744116.176 8
 109011004.992 8  84943674.206 7
                  20744116.324 7        51.300          43.500

  22408574.500 7  22408585.164 7  22408585.422 8
 117757731.380 7  91759387.625 5  87936042.777 8
                  22408584.727 5        43.200          33.200          48.100

  23305655.266 7  23305662.238 6
 122472065.234 7  95432766.856 4
                  23305662.332 4        42.300          28.100

  21881563.633 7
 114988427.249 7  89601373.011 5
                  21881570.477 5        45.700          35.400

  24282782.836 6  24282791.133 6
 127606892.869 6  99433970.751 3
                  24282791.367 3        38.800          22.800

  22875013.047 7
 120208954.783 7  93669347.624 5
                  22875018.902 5        42.600          33.000

  24400686.773 6  24400696.980 6  24400696.605 7
 128226367.923 6  99916741.667 3  95753508.956 7
                  24400696.473 3        39.200          22.600          42.600

  24141083.258 6  24141090.570 6
 126862231.583 6  98853726.042 3
                  24141090.645 3        39.900          23.600

 18 12  4  0 24  0.0000000  0  9G02G05G06G12G13G15G19G25G29
  21482077.648 7
 112889036.653 7  87965533.496 6
                  21482081.762 6        47.600          41.100

  20745876.266 8  20745882.988 8
 109020289.748 8  84950909.056 7
                  20745882.977 7        51.600          42.300

  22414608.930 7  22414619.027 7  22414619.078 7
 117789440.229 7  91784095.793 5  87959721.437 7
                  22414618.984 5        43.000          33.100          47.800

  23316811.758 7  23316818.895 6
 122530691.107 7  95478449.317 4
                  23316819.098 4        43.200          28.400

  21864714.391 7
 114899885.431 7  89532379.390 5
                  21864721.656 5        45.600          34.900

  24261180.102 6  24261188.730 6
 127493370.338 6  99345511.657 3
                  24261188.930 3        39.600          22.200

  22893271.523 7
 120304903.200 7  93744112.559 5
                  22893277.059 5        43.000          33.200

  24405097.766 6  24405107.406 6  24405106.547 7
 128249542.345 6  99934799.648 3  95770814.484 7
                  24405107.059 3        41.100          22.500          42.100

  24121635.133 6  24121642.352 6
 126760029.612 6  98774088.154 3
                  24121642.254 3        39.000          22.500

 18 12  4  0 24 30.0000000  0  9G02G05G06G12G13G15G19G25G29
  21477026.664 7
 112862492.706 7  87944849.885 6
                  21477031.020 6        47.700          41.300

  20747695.570 8  20747701.520 8
 109029847.807 8  84958356.878 7
                  20747701.676 7        50.500          43.000

  22420676.992 7  22420687.563 7  22420687.605 8
 117821329.834 7  91808944.823 5  87983535.080 8
                  22420687.258 5        43.200          32.800          48.100

  23328006.570 7  23328014.102 6
 122589523.085 7  95524292.358 4
                  23328013.973 4        42.100          27.500

  21847921.406 7
 114811638.611 7  89463615.634 5
                  21847928.668 5        45.400          35.500

  24239588.641 6  24239597.391 6
 127379907.806 6  99257099.315 3
                  24239597.527 3        38.600          20.900

  22911581.250 7
 120401120.874 7  93819087.287 5
                  22911586.879 5        43.000          33.500

  24409575.938 6  24409587.125 6  24409586.160 7
 128273082.160 6  99953142.352 3  95788392.875 7
                  24409586.164 3        40.900          22.300          42.200

  24102213.203 6  24102219.945 6
 126657966.583 6  98694558.517 3
                  24102220.555 3        38.100          22.200

 18 12  4  0 25  0.0000000  0  9G02G05G06G12G13G15G19G25G29
  21471994.008 7
 112836045.759 7  87924241.855 6
                  21471997.801 6        47.900          40.900

  20749565.727 8  20749572.359 8
 109039677.446 8  84966016.334 7
                  20749572.430 7        50.500          42.700

  22426780.031 7  22426790.473 7  22426790.406 8
 117853401.090 7  91833935.383 5  88007484.369 8
                  22426790.285 5        42.200          33.600          48.400

  23339241.211 7  23339248.027 6
 122648557.991 7  95570293.514 4
                  23339248.191 4        42.600          26.900

  21831185.672 7
 114723689.702 7  89395084.021 6
                  21831192.633 6        45.500          36.000

  24218010.695 6  24218017.449 5
 127266507.743 6  99168735.643 3
                  24218018.152 3        40.300          22.600

  22929941.328 7
 120497605.385 7  93894269.961 5
                  22929947.410 5        43.200          33.500

  24414125.102 6  24414135.234 5  24414135.313 7
 128296985.180 6  99971768.057 3  95806242.496 7
                  24414135.047 3        39.500          22.300          42.700

  24082818.063 6  24082825.387 6
 126556045.083 6  98615139.188 3
                  24082825.203 3        38.000          22.800

 18 12  4  0 25 30.0000000  0  9G02G05G06G12G13G15G19G25G29
  21466980.156 7
 112809697.503 7  87903710.746 6
                  21466983.953 6        47.900          40.600

  20751487.750 8  20751493.941 8
 109049776.944 8  84973886.067 7
                  20751494.250 7        51.200          42.800

  22432918.070 7  22432928.090 7  22432928.367 8
 117885655.125 7  91859068.390 5  88031570.144 8
                  22432928.023 5        43.200          33.200          48.600

  23350513.273 6  23350520.414 6
 122707792.938 6  95616450.544 4
                  23350519.688 4        41.800          26.500

  21814506.539 7
 114636041.587 7  89326786.807 5
                  21814513.625 5        45.900          35.800

  24196443.234 6  24196451.258 6
 127153172.833 6  99080422.737 3
                  24196451.324 3        39.800          22.000

  22948352.109 7
 120594354.690 7  93969658.945 5
                  22948358.461 5        43.000          33.400

  24418742.516 6  24418752.426 5  24418751.996 7
 128321249.344 6  99990675.162 3  95824361.821 7
                  24418751.875 3        39.700          21.500          42.600

  24063450.656 6  24063457.938 6
 126454267.521 6  98535832.016 3
                  24063457.953 3        38.500          22.900

 18 12  4  0 26  0.0000000  0  9G02G05G06G12G13G15G19G25G29
  21461985.227 8
 112783448.708 8  87883257.126 6
                  21461989.297 6        48.400          40.900

  20753460.547 8  20753466.871 8
 109060143.936 8  84981964.235 7
                  20753466.887 7        51.600          42.500

  22439090.633 7  22439100.973 7  22439101.273 8
 117918092.219 7  91884343.988 5  88055792.612 8
                  22439100.660 5        42.400          33.000          48.100

  23361822.625 7  23361829.719 6
 122767224.172 7  95662760.557 4
                  23361830.055 4        42.600          27.600

  21797885.734 7
 114548696.823 7  89258725.944 5
                  21797892.496 5        46.100          35.800

  24174889.414 6  24174897.023 6
 127039904.798 6  98992161.970 3
                  24174897.258 3        38.600          22.200

  22966813.008 7
 120691365.686 7  94045251.855 5
                  22966819.328 5        42.300          33.200

  24423428.008 6  24423437.492 5  24423437.695 7
 128345871.669 6 100009861.323 3  95842748.569 7
                  24423437.180 3        40.000          22.200          42.800

  24044110.813 6  24044117.688 6
 126352636.344 6  98456638.923 3
                  24044118.168 3        39.800          23.200

 18 12  4  0 26 30.0000000  0  9G02G05G06G12G13G15G19G25G29
  21457009.633 7
 112757301.935 7  87862882.994 6
                  21457013.332 6        47.900          40.800

  20755484.133 8  20755490.691 8
 109070777.927 8  84990250.447 7
                  20755490.793 7        50.700          42.500

  22445298.156 7  22445309.035 7  22445308.332 8
 117950714.364 7  91909763.841 5  88080153.297 8
                  22445308.414 5        42.700          32.900          48.300

  23373169.180 6  23373176.387 6
 122826849.620 6  95709221.904 4
                  23373175.590 4        41.300          26.300

  21781322.625 7
 114461658.960 7  89190904.233 5
                  21781329.703 5        45.900          35.500

  24153347.789 6  24153356.074 6
 126926707.025 6  98903955.940 3
                  24153356.219 3        39.800          21.800

  22985322.781 7
 120788637.286 7  94121047.820 5
                  22985329.180 5        42.000          32.200

  24428181.570 6  24428190.867 5  24428191.590 7
 128370850.995 6 100029325.743 3  95861401.913 7
                  24428190.254 3        39.900          19.600          42.900

  24024799.516 6  24024806.574 6
 126251154.790 6  98377562.384 4
                  24024807.590 4        40.300          24.100

 18 12  4  0 27  0.0000000  0  9G02G05G06G12G13G15G19G25G29
  21452054.055 8
 112731259.400 8  87842590.092 6
                  21452057.832 6        48.400          40.900

  20757558.125 8  20757564.320 8
 109081677.061 8  84998743.264 7
                  20757564.695 7        51.900          43.200

  22451541.813 7  22451551.898 7  22451551.508 7
 117983522.643 7  91935328.689 5  88104652.941 7
                  22451551.656 5        43.000          34.300          47.500

  23384551.266 6  23384558.793 6
 122886666.062 6  95755832.064 4
                  23384558.820 4        40.500          27.200

  21764818.961 7
 114374931.151 7  89123324.122 5
                  21764825.809 5        46.200          35.800

  24131820.883 6  24131829.387 6
 126813582.199 6  98815806.731 3
                  24131828.703 3        38.900          21.800

  23003882.820 6
 120886166.988 6  94197044.914 5
                  23003888.695 5        41.700          32.400

  24433002.359 6  24433012.324 6  24433012.125 7
 128396185.168 6 100049066.629 3  95880320.265 7
                  24433011.766 3        39.400          21.800          43.000

  24005517.070 6  24005524.453 6
 126149825.469 6  98298604.500 4
                  24005525.191 4        40.100          25.300

 18 12  4  0 27 30.0000000  0  9G02G05G06G12G13G15G19G25G29
  21447118.148 7
 112705321.558 7  87822378.783 6
                  21447122.055 6        47.900          41.700

  20759682.422 8  20759688.629 8
 109092838.972 8  85007440.850 7
                  20759688.641 7        51.300          42.900

  22457819.992 7  22457830.934 7  22457830.172 7
 118016517.382 7  91961038.837 5  88129291.813 7
                  22457830.273 5        43.000          32.600          47.200

  23395970.469 7  23395977.410 6
 122946670.044 7  95802588.357 4
                  23395977.074 4        42.400          26.100

  21748375.047 7
 114288515.533 7  89055987.274 6
                  21748381.828 6        46.400          36.100

  24110309.320 6  24110316.746 6
 126700532.520 6  98727716.103 3
                  24110316.977 3        39.500          23.600

  23022490.289 6
 120983952.448 6  94273241.313 5
                  23022496.730 5        41.900          32.900

  24437889.953 6  24437900.359 5  24437900.523 7
 128421871.370 6 100069081.786 3  95899501.502 7
                  24437899.207 3        39.500          19.900          44.100

  23986263.930 6  23986271.430 6
 126048650.841 6  98219767.150 3
                  23986272.469 3        39.900          22.800

 18 12  4  0 28  0.0000000  0  9G02G05G06G12G13G15G19G25G29
  21442202.625 8
 112679490.145 8  87802250.397 6
                  21442206.660 6        49.100          41.500

  20761856.477 8  20761862.445 8
 109104262.783 8  85016342.512 7
                  20761862.672 7        52.700          42.600

  22464134.336 7  22464145.008 7  22464145.418 8
 118049699.725 7  91986895.180 5  88154070.801 8
                  22464145.215 5        42.000          33.300          48.000

  23407424.008 7  23407430.531 6
 123006858.291 7  95849488.203 4
                  23407430.523 4        42.400          27.800

  21731990.445 7
 114202415.322 7  88988896.207 6
                  21731997.340 6        46.900          36.600

  24088810.633 6  24088819.133 6
 126587560.554 6  98639685.985 3
                  24088818.438 3        40.900          22.500

  23041146.672 7
 121081991.232 7  94349635.106 5
                  23041152.895 5        42.200          31.900

  24442845.078 6  24442854.824 5  24442854.883 7
 128447907.475 6 100089369.654 3  95918944.030 7
                  24442854.305 3        38.600          20.900          43.300

  23967040.664 6  23967048.730 6
 125947633.720 6  98141052.511 3
                  23967049.402 3        39.300          22.300

 18 12  4  0 28 30.0000000  0  9G02G05G06G12G13G15G19G25G29
  21437308.023 8
 112653767.147 8  87782206.484 6
                  21437311.789 6        48.800          41.300

  20764079.391 8  20764085.789 8
 109115946.396 8  85025446.627 7
                  20764085.766 7        51.800          42.600

  22470484.797 7  22470495.906 7  22470495.043 7
 118083070.819 7  92012898.572 5  88178990.706 7
                  22470494.746 5        42.700          32.800          47.600

  23418911.547 6  23418919.215 6
 123067227.945 6  95896529.433 4
                  23418919.234 4        41.800          26.900

  21715666.492 7
 114116633.435 7  88922053.179 6
                  21715673.539 6        46.800          36.600

  24067327.414 6  24067335.688 6
 126474668.532 6  98551718.201 3
                  24067336.691 3        38.600          21.800

  23059850.961 6
 121180280.921 6  94426224.395 5
                  23059856.590 5        41.700          32.300

  24447866.000 6  24447875.520 6  24447875.008 6
 128474291.321 6 100109928.438 3  95938646.203 6
                  24447875.645 3        39.400          21.300          41.500

  23947848.555 6  23947856.238 6
 125846776.527 6  98062462.537 3
                  23947856.551 3        39.100          22.900

 18 12  4  0 29  0.0000000  0  9G02G05G06G12G13G15G19G25G29
  21432433.805 8
 112628154.376 8  87762248.468 6
                  21432437.836 6        48.400          41.200

  20766351.797 8  20766358.277 8
 109127888.396 8  85034752.076 7
                  20766358.395 7        51.400          42.800

  22476871.539 7  22476881.922 7  22476881.621 7
 118116631.839 7  92039050.010 5  88204052.498 7
                  22476881.844 5        42.600          33.500          47.600

  23430434.055 7  23430440.555 6
 123127776.586 7  95943710.127 4
                  23430441.086 4        42.100          25.400

  21699404.086 7
 114031173.036 7  88855460.661 6
                  21699410.816 6        47.300          37.200

  24045861.992 6  24045869.277 6
 126361859.495 6  98463815.069 3
                  24045869.480 3        40.200          21.800

  23078602.266 7
 121278819.648 7  94503007.747 5
                  23078608.559 5        42.600          32.700

  24452952.508 6  24452962.055 5  24452961.660 7
 128501020.949 6 100130756.669 3  95958606.581 7
                  24452961.871 3        39.600          20.400          42.000

  23928687.375 6  23928694.293 6
 125746082.197 6  97983999.427 4
                  23928695.145 4        41.200          25.800

 18 12  4  0 29 30.0000000  0  9G02G05G06G12G13G15G19G25G29
  21427581.203 8
 112602653.205 8  87742377.421 6
                  21427585.086 6        48.800          41.200

  20768673.234 8  20768679.527 8
 109140087.215 8  85044257.654 7
                  20768679.875 7        52.300          42.800

  22483294.242 6  22483304.480 7  22483304.074 7
 118150383.482 6  92065349.961 5  88229256.608 7
                  22483304.285 5        41.900          33.600          47.200

  23441989.070 7  23441996.355 6
 123188500.344 7  95991027.258 4
                  23441996.656 4        42.600          26.800

  21683203.477 7
 113946036.794 7  88789120.732 6
                  21683210.242 6        47.600          36.800

  24024410.367 6  24024418.102 6
 126249135.801 6  98375978.409 3
                  24024419.027 3        40.500          22.600

  23097400.375 6
 121377604.681 6  94579983.028 5
                  23097406.875 5        41.600          31.900

  24458104.430 6  24458114.141 5  24458114.691 7
 128528093.676 6 100151852.259 3  95978823.188 7
                  24458113.211 3        39.400          20.400          42.200

  23909557.250 6  23909564.191 6
 125645553.541 6  97905665.400 4
                  23909565.148 4        41.100          24.600

 18 12  4  0 30  0.0000000  0  9G02G05G06G12G13G15G19G25G29
  21422750.047 8
 112577265.052 8  87722594.433 6
                  21422753.859 6        48.600          40.900

  20771043.258 8  20771049.512 8
 109152540.702 8  85053961.664 7
                  20771049.836 7        51.600          42.600

  22489754.008 7  22489763.590 7  22489763.934 7
 118184326.567 7  92091799.114 5  88254603.706 7
                  22489763.207 5        43.000          33.200          47.800

  23453578.063 7  23453584.543 6
 123249396.112 7  96038478.455 4
                  23453584.660 4        42.500          27.700

  21667064.508 7
 113861227.546 7  88723035.599 6
                  21667071.262 6        47.900          36.400

  24002975.836 6  24002984.609 6
 126136499.792 6  98288210.079 3
                  24002985.047 3        39.700          21.500

  23116244.125 7
 121476633.814 7  94657148.509 5
                  23116251.379 5        42.000          31.800

  24463320.195 6  24463329.949 5  24463330.313 6
 128555507.193 6 100173213.361 3  95999294.267 6
                  24463329.773 3        38.300          19.000          41.700

  23890459.875 6  23890466.492 6
 125545193.082 6  97827462.486 4
                  23890466.660 4        40.400          25.200

 18 12  4  0 30 30.0000000  0  9G02G05G06G12G13G15G19G25G29
  21417940.461 8
 112551992.455 8  87702901.495 6
                  21417944.543 6        48.600          41.600

  20773461.508 8  20773467.418 8
 109165247.616 8  85063863.136 7
                  20773467.430 7        50.800          42.600

  22496249.469 7  22496259.246 7  22496259.547 7
 118218462.637 7  92118398.625 5  88280094.896 7
                  22496259.695 5        43.500          34.600          47.600

  23465198.094 7  23465205.148 6
 123310461.359 7  96086061.712 4
                  23465204.836 4        42.100          26.800

  21650988.375 7
 113776748.683 7  88657207.916 6
                  21650995.813 6        47.300          37.100

  23981560.188 6  23981568.270 6
 126023954.485 6  98200512.484 4
                  23981568.492 4        40.700          24.800

  23135135.781 7
 121575904.776 7  94734502.432 5
                  23135142.176 5        42.100          31.900

  24468601.953 6  24468611.645 5  24468612.270 6
 128583259.709 6 100194838.653 3  96020018.519 6
                  24468610.660 3        38.700          18.600          40.600

  23871394.586 6  23871400.398 6
 125445003.557 6  97749392.763 3
                  23871400.602 3        40.700          22.500

 18 12  4  0 31  0.0000000  0  9G02G05G06G12G13G15G19G25G29
  21413153.469 8
 112526836.408 8  87683299.373 6
                  21413157.484 6        48.000          40.600

  20775927.234 8  20775933.168 8
 109178205.965 8  85073960.543 7
                  20775933.434 7        51.500          42.600

  22502782.234 7  22502792.441 7  22502792.109 8
 118252792.323 7  92145148.962 5  88305730.619 8
                  22502792.734 5        42.800          33.800          48.200

  23476849.867 7  23476856.305 6
 123371692.957 7  96133774.604 4
                  23476856.914 4        42.300          27.200

  21634976.586 7
 113692602.535 7  88591639.484 6
                  21634983.406 6        47.300          37.500

  23960160.383 6  23960169.328 6
 125911502.394 6  98112887.485 4
                  23960169.395 4        39.900          25.600

  23154071.508 6
 121675415.361 6  94812043.045 5
                  23154078.797 5        41.000          31.800

  24473946.664 6  24473955.750 5  24473957.000 6
 128611348.639 6 100216726.103 3  96040993.949 6
                  24473956.605 3        38.200          19.000          40.200

  23852361.602 6  23852368.480 6
 125344987.698 6  97671458.338 3
                  23852368.207 3        40.700          23.000

 18 12  4  0 31 30.0000000  0  9G02G05G06G12G13G15G19G25G29
  21408389.188 8
 112501798.924 8  87663789.611 6
                  21408393.059 6        48.000          41.300

  20778440.641 8  20778446.934 8
 109191414.699 8  85084253.062 7
                  20778447.234 7        51.000          42.500

  22509351.813 7  22509362.629 7  22509361.914 7
 118287316.913 7  92172051.223 5  88331511.936 7
                  22509362.164 5        42.500          34.800          47.600

  23488532.188 6  23488539.961 6
 123433087.889 6  96181614.716 4
                  23488540.008 4        41.400          27.500

  21619027.789 7
 113608792.470 7  88526332.943 6
                  21619034.563 6        47.600          37.000

  23938780.219 6  23938787.754 6
 125799145.888 6  98025336.981 4
                  23938787.918 4        40.500          24.000

  23173053.617 6
 121775163.288 6  94889768.644 5
                  23173059.840 5        41.800          31.600

  24479355.000 6  24479365.215 5  24479365.957 6
 128639771.967 6 100238874.150 3  96062219.111 6
                  24479365.719 3        38.600          19.300          41.100

  23833362.250 6  23833369.156 6
 125245148.268 6  97593661.400 3
                  23833368.813 3        41.600          22.200

 18 12  4  0 32  0.0000000  0  9G02G05G06G12G13G15G19G25G29
  21403647.586 7
 112476881.584 7  87644373.486 6
                  21403651.660 6        47.900          41.600

  20781001.445 8  20781007.801 8
 109204871.645 8  85094738.974 7
                  20781007.977 7        51.700          43.000

  22515958.906 6  22515969.652 7  22515968.961 7
 118322037.055 6  92199105.834 5  88357439.272 7
                  22515969.270 5        41.900          34.000          47.500

  23500246.359 6  23500253.461 6
 123494642.738 6  96229579.479 4
                  23500253.359 4        41.600          27.000

  21603143.703 8
 113525321.202 8  88461290.399 6
                  21603150.637 6        48.100          36.800

  23917418.695 6  23917425.680 6
 125686887.648 6  97937863.018 4
                  23917426.320 4        41.000          24.600

  23192079.844 6
 121875145.769 6  94967677.004 5
                  23192086.375 5        41.600          31.900

  24484827.914 6  24484837.629 5  24484836.293 6
 128668526.976 6 100261280.610 3  96083691.962 6
                  24484837.246 3        38.100          19.900          40.800

  23814398.227 6  23814403.805 6
 125145487.986 6  97516004.049 3
                  23814403.789 3        40.000          22.900

 18 12  4  0 32 30.0000000  0  9G02G05G06G12G13G15G19G25G29
  21398929.219 7
 112452086.503 7  87625052.644 6
                  21398932.984 6        47.900          40.900

  20783609.313 8  20783615.773 8
 109218575.718 8  85105417.475 7
                  20783615.660 7        51.500          42.800

  22522603.453 7  22522614.254 7  22522613.113 7
 118356954.380 7  92226314.134 5  88383513.877 7
                  22522613.875 5        42.100          33.400          47.300

  23511990.023 6  23511996.977 6
 123556355.208 6  96277667.045 4
                  23511997.293 4        41.100          26.400

  21587324.711 7
 113442192.178 7  88396514.531 6
                  21587331.668 6        47.200          37.600

  23896075.445 6  23896083.461 6
 125574730.643 6  97850467.964 4
                  23896083.547 4        40.400          25.800

  23211149.734 6
 121975361.410 6  95045767.028 5
                  23211156.875 5        41.200          31.300

  24490362.078 6  24490371.863 5  24490371.914 6
 128697612.044 6 100283944.264 3  96105411.303 6
                  24490372.086 3        38.100          20.400          41.700

  23795467.664 6  23795475.199 6
 125046010.122 6  97438488.834 3
                  23795474.535 3        39.400          22.500

 18 12  4  0 33  0.0000000  0  9G02G05G06G12G13G15G19G25G29
  21394234.141 7
 112427414.723 7  87605827.869 6
                  21394238.156 6        47.600          41.000

  20786263.586 8  20786269.730 7
 109232524.527 8  85116286.665 7
                  20786269.980 7        50.400          43.200

  22529285.781 7  22529295.898 7  22529295.293 7
 118392068.951 7  92253676.094 5  88409735.759 7
                  22529295.758 5        42.500          34.200          47.300

  23523762.906 6  23523770.211 6
 123618221.104 6  96325874.189 4
                  23523770.594 4        41.700          28.400

  21571571.383 7
 113359407.306 7  88332006.843 6
                  21571578.082 6        47.000          37.600

  23874752.961 7  23874759.809 6
 125462676.819 7  97763153.292 4
                  23874760.438 4        42.500          26.500

  23230264.477 6
 122075807.240 6  95124036.442 5
                  23230270.969 5        41.400          32.000

  24495959.227 6  24495969.332 6  24495968.676 6
 128727023.979 6 100306862.633 3  96127374.714 6
                  24495969.238 3        39.800          21.700          41.400

  23776572.445 6  23776579.406 6
 124946716.676 6  97361117.360 3
                  23776579.934 3        40.100          22.600

 18 12  4  0 33 30.0000000  0  9G02G05G06G12G13G15G19G25G29
  21389562.859 7
 112402868.088 7  87586700.612 6
                  21389567.270 6        47.900          41.100

  20788964.492 8  20788970.395 7
 109246717.079 8  85127345.780 7
                  20788970.531 7        50.700          42.700

  22536005.891 7  22536016.020 7  22536016.293 7
 118427382.076 7  92281192.765 5  88436105.894 7
                  22536015.867 5        42.700          33.500          47.800

  23535564.445 6  23535572.207 6
 123680238.263 6  96374199.164 4
                  23535571.711 4        41.800          27.700

  21555884.234 7
 113276969.601 7  88267769.663 6
                  21555890.965 6        47.500          37.800

  23853449.211 6  23853457.813 6
 125350728.857 6  97675921.152 4
                  23853457.648 4        40.700          25.600

  23249421.867 6
 122176480.986 6  95202483.422 5
                  23249428.414 5        41.300          31.200

  24501617.672 6  24501628.172 6  24501627.961 6
 128756760.778 6 100330034.123 3  96149580.684 6
                  24501627.641 3        38.600          20.600          41.100

  23757713.695 6  23757719.953 6
 124847610.576 6  97283891.796 3
                  23757720.457 3        41.300          22.000

 18 12  4  0 34  0.0000000  0  9G02G05G06G12G13G15G19G25G29
  21384916.625 7
 112378448.789 7  87567672.572 6
                  21384920.500 6        47.800          40.600

  20791711.102 8  20791717.465 8
 109261151.303 8  85138593.226 7
                  20791717.645 7        51.100          42.800

  22542763.094 7  22542774.207 7  22542773.945 7
 118462894.935 7  92308865.070 5  88462625.181 7
                  22542773.605 5        42.300          33.500          47.800

  23547393.773 6  23547401.512 6
 123742403.493 6  96422639.561 4
                  23547401.480 4        40.900          26.400

  21540263.211 8
 113194882.487 8  88203805.688 6
                  21540270.492 6        48.000          38.400

  23832167.148 6  23832174.957 6
 125238889.658 6  97588773.739 4
                  23832175.227 4        41.800          25.800

  23268622.031 7
 122277380.544 7  95281106.372 5
                  23268629.230 5        42.300          31.300

  24507337.789 6  24507348.148 5  24507347.895 7
 128786820.147 6 100353456.992 3  96172027.603 7
                  24507347.668 3        37.700          18.600          42.100

  23738891.367 6  23738897.051 6
 124748694.808 6  97206814.561 3
                  23738897.766 3        41.300          22.300

 18 12  4  0 34 30.0000000  0  9G02G05G06G12G13G15G19G25G29
  21380293.930 7
 112354158.306 7  87548744.916 6
                  21380298.051 6        47.600          41.300

  20794503.617 8  20794510.117 8
 109275825.661 8  85150027.787 7
                  20794509.895 7        50.700          42.500

  22549560.047 7  22549570.090 7  22549570.332 7
 118498608.427 7  92336693.718 5  88489294.285 7
                  22549570.367 5        42.700          33.700          47.900

  23559250.727 6  23559258.074 6
 123804713.466 6  96471192.695 4
                  23559258.422 4        41.400          26.800

  21524709.672 7
 113113148.251 7  88140116.675 6
                  21524716.914 6        47.500          37.800

  23810905.766 7  23810914.297 6
 125127161.721 7  97501713.031 4
                  23810914.418 4        42.200          25.600

  23287866.000 6
 122378503.500 6  95359903.413 5
                  23287872.035 5        41.800          30.500

  24513118.609 6  24513128.898 5  24513129.098 7
 128817199.761 6 100377129.315 3  96194713.597 7
                  24513128.305 3        38.000          20.400          42.200

  23720104.922 6  23720111.371 6
 124649971.983 6  97129887.702 3
                  23720111.594 3        40.800          22.600

 18 12  4  0 35  0.0000000  0  9G02G05G06G12G13G15G19G25G29
  21375696.695 8
 112329998.609 8  87529919.158 6
                  21375700.512 6        48.000          41.500

  20797341.383 8  20797347.758 8
 109290739.229 8  85161648.742 7
                  20797347.891 7        50.900          42.300

  22556394.508 7  22556404.762 7  22556404.512 7
 118534523.883 7  92364679.756 5  88516114.217 7
                  22556404.125 5        42.600          33.600          47.800

  23571135.094 6  23571142.844 6
 123867165.498 6  96519856.547 4
                  23571143.016 4        41.500          27.000

  21509224.336 8
 113031770.530 8  88076705.478 6
                  21509231.316 6        48.100          38.100

  23789666.875 7  23789674.758 6
 125015547.912 7  97414741.242 4
                  23789674.383 4        42.700          27.300

  23307151.539 7
 122479847.509 7  95438872.694 5
                  23307157.219 5        42.300          32.100

  24518961.227 6  24518970.250 5  24518970.867 7
 128847897.571 6 100401049.621 3  96217637.237 7
                  24518969.867 3        40.000          21.500          42.200

  23701355.523 6  23701362.313 6
 124551445.201 6  97053113.624 3
                  23701362.336 3        39.800          22.200

 18 12  4  0 35 30.0000000  0  9G02G05G06G12G13G15G19G25G29
  21371124.672 8
 112305971.683 8  87511196.884 6
                  21371128.504 6        48.300          41.000

  20800224.797 8  20800231.234 8
 109305890.136 8  85173454.639 7
                  20800231.191 7        50.700          42.800

  22563266.930 7  22563277.840 7  22563277.746 8
 118570642.303 7  92392823.963 5  88543085.753 8
                  22563277.723 5        42.600          33.500          48.200

  23583046.078 7  23583053.824 6
 123929757.064 7  96568629.106 4
                  23583053.770 4        42.200          27.400

  21493807.117 8
 112950752.146 8  88013574.277 6
                  21493813.734 6        48.000          38.500

  23768449.945 7  23768457.316 6
 124904050.818 7  97327860.427 4
                  23768457.480 4        42.900          27.100

  23326477.758 6
 122581410.715 6  95518012.751 5
                  23326484.469 5        41.400          31.500

  24524862.359 6  24524872.578 6  24524872.426 7
 128878911.260 6 100425216.075 3  96240796.708 7
                  24524872.543 3        38.900          21.100          42.100

  23682644.781 6  23682651.305 6
 124453117.262 6  96976494.458 3
                  23682651.484 3        40.700          22.800

 18 12  4  0 36  0.0000000  0  9G02G05G06G12G13G15G19G25G29
  21366577.680 8
 112282079.062 8  87492579.244 6
                  21366581.824 6        48.500          40.700

  20803152.578 8  20803158.695 7
 109321276.148 8  85185443.736 7
                  20803158.684 7        50.900          42.800

  22570179.109 7  22570189.785 7  22570189.488 8
 118606964.397 7  92421126.871 5  88570209.358 8
                  22570189.664 5        42.900          32.600          48.600

  23594982.734 6  23594990.203 6
 123992484.725 6  96617507.721 4
                  23594990.313 4        41.600          26.800

  21478458.625 8
 112870095.692 8  87950725.087 6
                  21478465.242 6        48.500          38.900

  23747254.734 7  23747262.379 6
 124792672.938 7  97241072.523 4
                  23747262.961 4        42.900          27.000

  23345845.906 6
 122683190.269 6  95597321.401 5
                  23345852.242 5        41.800          31.900

  24530823.523 6  24530833.938 6  24530834.113 7
 128910238.140 6 100449626.584 3  96264190.125 7
                  24530833.473 3        37.700          20.600          42.100

  23663970.695 6  23663977.484 6
 124354991.073 6  96900032.482 3
                  23663978.512 3        39.500          21.500

 18 12  4  0 36 30.0000000  0  9G02G05G06G12G13G15G19G25G29
  21362057.078 8
 112258323.066 8  87474068.058 6
                  21362061.426 6        48.500          40.900

  20806125.133 8  20806131.398 8
 109336896.671 8  85197615.565 7
                  20806131.422 7        51.100          42.600

  22577129.867 6  22577140.523 7  22577140.082 8
 118643491.571 6  92449589.567 5  88597486.100 8
                  22577140.242 5        41.900          32.100          48.100

  23606945.094 6  23606952.277 6
 124055345.847 6  96666490.320 4
                  23606952.734 4        41.700          27.200

  21463179.500 8
 112789804.507 8  87888160.539 6
                  21463186.430 6        48.200          38.200

  23726083.813 7  23726091.742 6
 124681417.543 7  97154380.035 4
                  23726092.059 4        43.000          28.500

  23365254.852 6
 122785184.558 6  95676797.391 5
                  23365261.320 5        40.900          30.700

  24536844.891 6  24536855.051 6  24536854.711 7
 128941876.402 6 100474279.744 3  96287816.002 7
                  24536854.969 3        39.000          23.000          43.000

  23645336.547 6  23645343.254 6
 124257069.505 6  96823729.974 3
                  23645344.000 3        39.500          22.200

 18 12  4  0 37  0.0000000  0  9G02G05G06G12G13G15G19G25G29
  21357562.984 8
 112234704.720 8  87455664.139 6
                  21357566.859 6        49.100          41.400

  20809141.375 8  20809147.953 8
 109352749.100 8  85209968.110 7
                  20809148.051 7        50.300          42.800

  22584120.273 7  22584130.371 7  22584130.523 8
 118680224.115 7  92478212.301 5  88624916.227 8
                  22584129.707 5        42.300          32.400          48.000

  23618932.016 7  23618939.488 6
 124118336.497 7  96715573.868 4
                  23618939.465 4        42.000          27.900

  21447970.320 8
 112709880.566 8  87825882.146 6
                  21447977.285 6        48.600          38.300

  23704935.930 7  23704943.793 6
 124570286.408 7  97067784.376 4
                  23704944.133 4        42.600          26.200

  23384704.180 6
 122887390.375 6  95756438.173 5
                  23384710.910 5        41.200          31.300

  24542924.211 6  24542934.555 6  24542933.875 7
 128973822.908 6 100499173.052 3  96311672.052 7
                  24542933.867 3        39.800          23.000          43.600

  23626742.789 6  23626749.902 6
 124159354.677 6  96747588.528 3
                  23626748.773 3        40.500          23.400

 18 12  4  0 37 30.0000000  0  9G02G05G06G12G13G15G19G25G29
  21353095.359 8
 112211225.366 8  87437368.507 6
                  21353099.168 6        48.400          41.300

  20812202.250 8  20812208.418 8
 109368831.784 8  85222500.058 7
                  20812208.668 7        51.600          42.600

  22591149.391 7  22591159.484 7  22591159.602 8
 118717162.798 7  92506995.693 5  88652500.294 8
                  22591159.004 5        42.200          31.700          48.700

  23630943.047 7  23630950.813 6
 124181453.725 7  96764756.074 4
                  23630951.152 4        42.600          27.600

  21432832.188 8
 112630326.566 8  87763892.033 6
                  21432838.727 6        48.300          38.900

  23683812.484 7  23683820.477 6
 124459281.750 7  96981287.286 4
                  23683820.941 4        42.800          26.900

  23404193.242 6
 122989805.483 6  95836242.068 5
                  23404199.344 5        41.500          31.200

  24549061.211 6  24549071.914 6  24549070.875 7
 129006075.117 6 100524304.536 3  96335756.374 7
                  24549071.781 3        37.500          22.300          43.300

  23608188.406 6  23608195.227 6
 124061848.956 6  96671610.001 4
                  23608194.293 4        41.000          24.500

 18 12  4  0 38  0.0000000  0  9G02G05G06G12G13G15G19G25G29
  21348653.484 8
 112187886.503 8  87419182.383 6
                  21348657.699 6        48.800          41.100

  20815305.961 8  20815312.410 8
 109385142.915 8  85235210.029 7
                  20815312.406 7        51.300          43.100

  22598217.953 7  22598227.953 7  22598228.133 7
 118754308.551 7  92535940.390 5  88680238.956 7
                  22598228.281 5        42.200          32.000          47.700

  23642977.430 6  23642984.785 6
 124244694.356 6  96814034.407 4
                  23642984.637 4        41.800          28.300

  21417763.938 7
 112551145.277 7  87702192.326 6
                  21417771.008 6        47.900          38.600

  23662713.781 7  23662721.453 6
 124348406.420 7  96894890.924 4
                  23662721.723 4        43.000          28.300

  23423721.438 6
 123092427.136 6  95916206.881 5
                  23423727.777 5        41.400          30.900

  24555255.609 6  24555267.211 6  24555266.234 7
 129038630.435 6 100549672.323 3  96360067.124 7
                  24555267.059 3        37.300          22.500          43.600

  23589673.734 6  23589680.980 6
 123964555.463 6  96595796.911 3
                  23589680.590 3        40.800          22.800

 18 12  4  0 38 30.0000000  0  9G02G05G06G12G13G15G19G25G29
  21344239.977 8
 112164691.406 8  87401108.276 6
                  21344243.836 6        48.200          41.400

  20818453.109 8  20818459.672 8
 109401681.536 8  85248097.265 7
                  20818459.582 7        50.300          42.300

  22605325.680 6  22605336.977 7  22605336.551 8
 118791662.924 6  92565047.686 5  88708133.466 8
                  22605336.617 5        41.400          32.000          49.000

  23655034.703 7  23655041.875 6
 124308056.032 7  96863407.061 4
                  23655042.195 4        43.300          28.900

  21402767.984 7
 112472340.129 7  87640785.725 6
                  21402774.930 6        47.900          38.100

  23641639.484 7  23641648.395 6
 124237663.486 7  96808597.727 4
                  23641648.563 4        42.600          28.300

  23443288.414 6
 123195253.579 6  95996331.297 4
                  23443294.992 4        41.400          29.900

  24561508.828 6  24561518.980 6  24561518.836 7
 129071487.157 6 100575274.863 3  96384602.887 7
                  24561518.934 3        39.200          23.000          43.800

  23571200.602 6  23571207.496 6
 123867477.757 6  96520151.959 4
                  23571207.688 4        40.400          25.500

 18 12  4  0 39  0.0000000  0  9G02G05G06G12G13G15G19G25G29
  21339853.352 8
 112141640.894 8  87383146.813 6
                  21339857.586 6        48.200          41.200

  20821643.125 8  20821649.418 8
 109418445.363 8  85261159.980 7
                  20821649.813 7        50.300          42.600

  22612474.367 7  22612484.297 7  22612484.777 8
 118829226.257 7  92594317.810 5  88736183.985 8
                  22612484.078 5        42.000          32.100          48.600

  23667114.078 7  23667121.445 6
 124371534.895 7  96912871.007 4
                  23667121.840 4        42.600          27.600

  21387843.977 8
 112393913.313 8  87579673.924 6
                  21387850.750 6        49.300          38.500

  23620591.602 6  23620600.129 6
 124127055.091 6  96722409.393 4
                  23620600.238 4        41.900          27.900

  23462893.680 6
 123298282.122 6  96076613.177 4
                  23462900.238 4        40.800          28.800

  24567819.281 6  24567828.953 6  24567828.266 7
 129104642.250 6 100601109.882 3  96409361.461 7
                  24567828.590 3        38.800          22.500          44.200

  23552769.094 6  23552776.027 6
 123770617.734 6  96444676.612 4
                  23552776.188 4        41.300          25.800

 18 12  4  0 39 30.0000000  0  9G02G05G06G12G13G15G19G25G29
  21335494.852 8
 112118736.923 8  87365299.535 6
                  21335499.195 6        48.600          40.800

  20824875.688 8  20824882.227 8
 109435432.972 8  85274397.078 7
                  20824882.371 7        50.500          42.700

  22619661.633 7  22619672.648 7  22619673.012 8
 118866999.529 7  92623751.537 5  88764391.333 8
                  22619673.027 5        42.800          31.800          48.300

  23679216.422 7  23679223.402 6
 124435128.255 7  96962424.181 4
                  23679223.563 4        43.700          28.700

  21372992.484 8
 112315867.845 8  87518859.278 6
                  21372999.203 6        49.400          39.400

  23599569.875 7  23599577.297 6
 124016583.554 7  96636327.693 4
                  23599577.617 4        43.000          27.600

  23482538.125 6
 123401510.137 6  96157050.505 5
                  23482545.086 5        41.300          30.900

  24574182.656 5  24574193.684 6  24574193.844 7
 129138093.296 5 100627175.581 3  96434341.070 7
                  24574193.813 3        35.800          21.500          44.700

  23534379.266 6  23534386.000 6
 123673978.493 6  96369373.318 4
                  23534386.141 4        40.900          25.200

 18 12  4  0 40  0.0000000  0  9G02G05G06G12G13G15G19G25G29
  21331164.664 8
 112095980.940 8  87347567.560 6
                  21331168.754 6        48.200          41.700

  20828150.922 8  20828156.793 8
 109452642.522 8  85287807.112 7
                  20828157.113 7        50.200          42.600

  22626889.867 7  22626900.422 7  22626900.781 7
 118904983.620 7  92653349.524 5  88792756.060 7
                  22626899.594 5        42.000          31.500          47.900

  23691338.727 7  23691345.898 6
 124498833.187 7  97012064.320 4
                  23691345.840 4        42.600          27.800

  21358213.617 8
 112238206.170 8  87458343.684 6
                  21358220.352 6        48.500          38.900

  23578574.461 7  23578582.359 6
 123906252.020 7  96550355.083 4
                  23578582.828 4        42.500          28.500

  23502219.508 6
 123504935.580 6  96237641.637 5
                  23502226.148 5        41.700          31.200

  24580605.578 6  24580615.867 6  24580615.469 7
 129171837.796 6 100653469.933 3  96459539.829 7
                  24580615.625 3        38.300          22.800          44.500

  23516031.836 7  23516039.246 6
 123577562.713 7  96294244.147 4
                  23516038.742 4        43.500          27.000

 18 12  4  0 40 30.0000000  0  9G02G05G06G12G13G15G19G25G29
  21326862.523 8
 112073374.672 8  87329952.257 6
                  21326866.961 6        48.100          41.000

  20831467.578 8  20831473.668 8
 109470072.099 8  85301388.595 7
                  20831473.664 7        52.100          42.900

  22634158.555 7  22634169.453 7  22634168.949 8
 118943178.963 7  92683112.100 5  88821278.523 8
                  22634169.305 5        42.300          32.900          48.100

  23703481.617 7  23703489.262 6
 124562646.128 7  97061788.595 4
                  23703489.473 4        42.100          27.600

  21343508.813 8
 112160930.743 8  87398129.078 6
                  21343515.844 6        48.700          38.800

  23557605.828 7  23557614.316 6
 123796062.307 7  96464492.998 4
                  23557614.324 4        42.600          27.600

  23521937.250 6
 123608555.511 6  96318384.338 5
                  23521944.746 5        41.600          30.000

  24587082.492 6  24587091.770 6  24587091.707 7
 129205872.981 6 100679990.782 3  96484955.585 7
                  24587092.383 3        38.300          22.600          44.200

  23497727.711 7  23497733.699 6
 123481372.900 7  96219291.037 4
                  23497734.332 4        42.400          26.200

 18 12  4  0 41  0.0000000  0  9G02G05G06G12G13G15G19G25G29
  21322589.945 8
 112050920.711 8  87312455.651 6
                  21322594.070 6        48.300          40.900

  20834825.992 8  20834832.027 8
 109487721.199 8  85315141.145 7
                  20834832.480 7        50.800          42.800

  22641468.039 7  22641477.711 7  22641478.039 8
 118981587.628 7  92713040.903 5  88849960.283 8
                  22641477.230 5        42.400          30.600          48.600

  23715645.641 7  23715652.844 6
 124626564.977 7  97111595.400 4
                  23715652.742 4        42.000          27.100

  21328878.016 8
 112084045.333 8  87338218.368 6
                  21328884.828 6        49.400          38.400

  23536665.305 7  23536673.102 6
 123686018.070 7  96378744.287 4
                  23536673.363 4        42.900          28.400

  23541692.844 6
 123712368.759 6  96399277.678 4
                  23541699.246 4        41.400          28.200

  24593613.617 5  24593624.488 6  24593623.930 7
 129240197.210 5 100706736.830 3  96510587.214 7
                  24593624.012 3        35.900          20.600          44.500

  23479466.945 7  23479473.297 6
 123385412.379 7  96144516.611 4
                  23479473.227 4        42.300          24.200

 18 12  4  0 41 30.0000000  0  9G02G05G06G12G13G15G19G25G29
  21318346.211 8
 112028620.332 8  87295078.722 6
                  21318350.574 6        48.300          40.900

  20838225.719 8  20838232.047 8
 109505587.211 8  85329062.708 7
                  20838232.258 7        51.800          42.500

  22648817.313 7  22648827.867 7  22648827.898 8
 119020209.741 7  92743136.057 5  88878801.464 8
                  22648827.918 5        43.300          31.800          48.800

  23727827.930 7  23727836.168 6
 124690585.713 7  97161481.580 4
                  23727835.434 4        42.300          26.500

  21314322.047 8
 112007551.985 8  87278613.158 6
                  21314328.820 6        49.000          38.900

  23515753.078 7  23515760.461 6
 123576121.386 7  96293110.522 4
                  23515760.402 4        43.200          28.100

  23561483.953 6
 123816372.130 6  96480319.170 4
                  23561490.816 4        41.100          29.300

  24600200.086 6  24600210.129 6  24600210.711 7
 129274807.394 6 100733705.747 3  96536432.429 7
                  24600209.422 3        38.100          21.700          45.100

  23461249.852 7  23461257.121 6
 123289683.771 7  96069922.899 4
                  23461257.020 4        43.100          26.600

 18 12  4  0 42  0.0000000  0  9G02G05G06G12G13G15G19G25G29
  21314132.180 8
 112006476.040 8  87277823.421 6
                  21314136.828 6        48.900          41.400

  20841666.656 8  20841673.188 7
 109523669.437 8  85343152.750 7
                  20841673.004 7        52.000          42.600

  22656207.602 6  22656218.234 7  22656218.391 8
 119059046.946 6  92773398.757 5  88907803.230 8
                  22656218.492 5        41.900          32.300          48.400

  23740030.117 7  23740037.727 6
 124754706.755 7  97211445.931 4
                  23740037.891 4        42.300          26.400

  21299841.055 8
 111931454.403 8  87219316.335 6
                  21299847.801 6        49.500          38.700

  23494868.867 7  23494876.328 6
 123466375.472 7  96207594.230 4
                  23494876.191 4        42.700          27.900

  23581311.195 6
 123920563.585 6  96561507.232 4
                  23581317.684 4        40.900          29.500

  24606840.734 6  24606851.238 6  24606850.262 7
 129309701.831 6 100760896.141 3  96562489.855 7
                  24606850.406 3        38.100          23.200          44.400

  23443078.688 7  23443085.211 6
 123194190.552 7  95995512.624 4
                  23443086.176 4        42.300          27.100

 18 12  4  0 42 30.0000000  0  9G02G05G06G12G13G15G19G25G29
  21309948.492 8
 111984488.704 8  87260690.422 6
                  21309952.504 6        48.100          41.800

  20845148.492 8  20845154.621 8
 109541965.405 8  85357409.348 7
                  20845154.531 7        51.800          42.900

  22663638.773 7  22663650.234 7  22663649.563 8
 119098099.329 7  92803829.164 5  88936965.680 8
                  22663649.500 5        42.600          31.400          48.000

  23752249.922 6  23752257.879 6
 124818924.155 6  97261485.378 4
                  23752257.605 4        41.400          25.900

  21285435.523 8
 111855754.057 8  87160329.061 6
                  21285442.398 6        48.500          38.900

  23474013.906 7  23474021.230 6
 123356782.366 7  96122197.038 4
                  23474021.961 4        43.800          28.400

  23601173.305 6
 124024940.119 6  96642839.477 4
                  23601179.797 4        41.100          29.400

  24613534.195 6  24613544.059 6  24613544.176 7
 129344877.103 6 100788305.346 3  96588756.984 7
                  24613543.859 3        37.400          21.800          44.400

  23424952.406 7  23424958.805 6
 123098934.488 7  95921287.136 4
                  23424959.215 4        42.400          26.400

 18 12  4  0 43  0.0000000  0  9G02G05G06G12G13G15G19G25G29
  21305794.953 8
 111962661.081 8  87243681.861 6
                  21305798.820 6        49.000          41.600

  20848670.430 8  20848676.820 8
 109560474.159 8  85371831.759 7
                  20848676.891 7        51.900          42.900

  22671111.867 7  22671122.273 7  22671122.922 8
 119137368.352 7  92834428.353 5  88966289.914 8
                  22671122.738 5        42.400          32.300          48.700

  23764487.734 6  23764495.461 6
 124883235.490 6  97311598.016 4
                  23764496.273 4        41.600          25.300

  21271106.641 8
 111780454.340 8  87101653.959 6
                  21271113.309 6        48.200          39.400

  23453188.477 7  23453196.344 6
 123247345.001 7  96036921.206 4
                  23453196.711 4        43.500          28.700

  23621070.195 6
 124129500.002 6  96724314.602 4
                  23621077.098 4        40.800          29.400

  24620280.844 5  24620291.195 6  24620290.664 7
 129380331.356 5 100815932.030 3  96615232.512 7
                  24620291.000 3        35.200          19.900          44.500

  23406871.227 7  23406877.906 6
 123003918.809 7  95847248.936 4
                  23406877.691 4        42.600          25.600

 18 12  4  0 43 30.0000000  0  9G02G05G06G12G13G15G19G25G29
  21301671.609 8
 111940993.899 8  87226798.308 6
                  21301675.934 6        48.000          41.600

  20852232.453 8  20852238.859 8
 109579193.196 8  85386418.024 7
                  20852238.664 7        51.200          43.100

  22678625.508 6  22678636.035 7  22678636.430 8
 119176853.995 6  92865196.316 5  88995775.870 8
                  22678635.879 5        41.800          31.200          48.300

  23776743.938 6  23776750.730 6
 124947636.347 6  97361780.413 4
                  23776750.918 4        41.000          25.600

  21256853.727 8
 111705557.200 8  87043292.543 6
                  21256860.977 6        48.000          39.200

  23432393.023 7  23432401.680 6
 123138065.108 7  95951768.052 4
                  23432401.324 4        43.100          28.900

  23641002.117 6
 124234240.103 6  96805930.163 4
                  23641007.852 4        40.800          29.100

  24627078.625 5  24627090.105 6  24627090.215 7
 129416061.084 5 100843773.250 3  96641913.722 7
                  24627089.984 3        34.300          19.300          45.000

  23388835.875 6  23388842.836 6
 122909145.879 6  95773399.918 4
                  23388843.246 4        41.700          24.000

 18 12  4  0 44  0.0000000  0  9G02G05G06G12G13G15G19G25G29
  21297579.734 8
 111919489.446 8  87210041.568 6
                  21297583.691 6        48.500          41.500

  20855834.633 8  20855840.762 8
 109598121.560 8  85401167.395 7
                  20855841.184 7        51.100          43.400

  22686181.047 7  22686191.039 7  22686191.555 7
 119216557.596 7  92896134.161 5  89025424.617 7
                  22686191.375 5        42.200          30.700          47.200

  23789015.477 7  23789023.051 6
 125012124.649 7  97412030.940 4
                  23789023.090 4        42.000          25.400

  21242678.742 8
 111631065.651 8  86985247.172 6
                  21242685.680 6        48.300          39.200

  23411628.305 7  23411636.352 6
 123028945.889 7  95866740.104 4
                  23411636.664 4        43.700          29.100

  23660967.797 6
 124339158.545 6  96887684.678 4
                  23660973.664 4        41.100          27.900

  24633930.227 5  24633941.254 6  24633941.125 7
 129452064.241 5 100871827.645 3  96668799.165 7
                  24633940.715 3        34.600          19.300          45.100

  23370847.672 6  23370854.559 6
 122814618.662 6  95699742.334 4
                  23370854.828 4        40.600          26.800

 18 12  4  0 44 30.0000000  0  9G02G05G06G12G13G15G19G25G29
  21293518.883 8
 111898149.500 8  87193413.026 7
                  21293522.969 7        48.600          42.000

  20859475.961 8  20859482.332 8
 109617257.453 8  85416078.478 7
                  20859482.402 7        51.300          43.400

  22693777.555 6  22693788.277 7  22693788.395 7
 119256480.182 6  92927242.649 5  89055236.924 7
                  22693788.234 5        41.600          30.200          47.800

  23801303.453 6  23801310.891 6
 125076697.278 6  97462347.167 4
                  23801310.555 4        41.100          26.000

  21228581.336 8
 111556982.712 8  86927520.217 6
                  21228588.215 6        48.400          39.600

  23390895.008 7  23390902.637 6
 122919989.875 7  95781839.350 4
                  23390903.027 4        44.100          29.100

  23680966.188 6
 124444252.591 6  96969576.038 4
                  23680972.570 4        41.200          29.100

  24640833.008 5  24640844.488 6  24640843.883 7
 129488338.423 5 100900093.216 3  96695886.916 7
                  24640843.984 3        33.600          19.300          44.800

  23352907.383 6  23352915.313 6
 122720340.186 6  95626278.583 4
                  23352914.988 4        41.800          25.200

 18 12  4  0 45  0.0000000  0  9G02G05G06G12G13G15G19G25G29
  21289489.547 8
 111876975.614 8  87176913.907 6
                  21289493.785 6        48.400          41.600

  20863156.328 8  20863162.754 8
 109636598.512 8  85431149.434 7
                  20863162.832 7        51.100          42.700

  22701416.781 7  22701426.793 7  22701427.020 7
 119296621.963 7  92958521.928 4  89085212.907 7
                  22701426.543 4        42.600          29.800          47.400

  23813605.813 6  23813613.793 6
 125141350.724 6  97512726.396 4
                  23813613.520 4        40.900          24.500

  21214561.789 8
 111483310.196 8  86870113.065 6
                  21214568.477 6        48.300          39.800

  23370192.641 7  23370200.773 6
 122811199.320 7  95697067.508 4
                  23370200.867 4        43.900          29.800

  23700998.094 6
 124549519.563 6  97051602.145 4
                  23701005.000 4        40.300          29.300

  24647787.102 5  24647797.402 6  24647798.297 7
 129524880.558 5 100928567.462 3  96723174.782 7
                  24647798.008 3        32.500          19.300          45.700

  23335014.078 6  23335022.063 6
 122626312.727 6  95553010.449 4
                  23335022.410 4        40.900          24.500

 18 12  4  0 45 30.0000000  0  9G02G05G06G12G13G15G19G25G29
  21285492.305 8
 111855969.500 8  87160545.492 6
                  21285496.383 6        48.700          41.400

  20866875.953 8  20866882.164 8
 109656143.373 8  85446379.197 7
                  20866881.945 7        51.200          43.000

  22709097.313 7  22709107.848 7  22709107.793 7
 119336983.961 7  92989972.827 5  89115353.360 7
                  22709107.688 5        42.100          30.300          47.400

  23825924.133 6  23825932.227 6
 125206082.559 6  97563166.691 3
                  23825932.359 3        41.100          22.900

  21200621.273 8
 111410050.928 8  86813027.918 6
                  21200628.027 6        48.400          39.700

  23349522.219 7  23349530.656 6
 122702577.108 7  95612426.863 4
                  23349531.121 4        44.500          29.400

  23721061.938 6
 124654957.261 6  97133761.257 4
                  23721069.094 4        39.700          28.100

  24654791.516 5  24654801.637 6  24654802.938 7
 129561688.084 5 100957248.549 3  96750660.840 7
                  24654801.734 3        34.700          19.000          46.300

  23317170.375 7  23317177.785 6
 122532539.384 7  95479940.354 4
                  23317177.891 4        42.400          27.200

 18 12  4  0 46  0.0000000  0  9G02G05G06G12G13G15G19G25G29
  21281527.148 8
 111835133.987 8  87144310.005 6
                  21281531.465 6        49.200          41.700

  20870633.570 8  20870639.820 8
 109675891.887 8  85461767.638 7
                  20870640.063 7        51.400          42.600

  22716820.664 7  22716831.273 7  22716831.121 7
 119377567.845 7  93021596.638 5  89145659.493 7
                  22716830.680 5        42.900          30.700          47.800

  23838256.375 6  23838264.668 6
 125270890.170 6  97613666.039 3
                  23838264.758 3        40.800          23.600

  21186759.727 8
 111337208.369 8  86756267.478 6
                  21186766.605 6        48.500          40.500

  23328885.008 7  23328893.523 6
 122594126.243 7  95527919.722 4
                  23328893.078 4        44.000          29.800

  23741159.086 6
 124760563.683 6  97216051.883 4
                  23741164.938 4        40.700          27.300

  24661846.477 5  24661856.906 6  24661857.039 7
 129598759.294 5 100986135.193 3  96778343.826 7
                  24661856.281 3        35.300          21.700          45.200

  23299374.297 6  23299381.645 6
 122439023.596 6  95407070.899 4
                  23299381.973 4        41.700          25.800

 18 12  4  0 46 30.0000000  0  9G02G05G06G12G13G15G19G25G29
  21277594.875 8
 111814470.329 8  87128208.420 6
                  21277599.148 6        49.000          41.300

  20874430.070 8  20874436.285 8
 109695841.187 8  85477312.532 7
                  20874436.543 7        51.900          43.700

  22724585.719 7  22724595.992 7  22724596.316 7
 119418373.742 7  93053393.412 5  89176131.419 7
                  22724595.918 5        42.400          31.300          47.300

  23850603.289 6  23850610.512 6
 125335769.995 6  97664221.631 3
                  23850610.184 3        41.100          22.300

  21172977.805 8
 111264784.280 8  86699833.126 6
                  21172984.750 6        48.600          39.600

  23308280.797 7  23308288.578 6
 122485848.843 7  95443547.739 4
                  23308288.332 4        44.500          29.500

  23761286.336 6
 124866336.025 6  97298471.796 4
                  23761293.082 4        40.500          28.500

  24668949.719 5  24668960.469 6  24668960.574 7
 129636091.076 5 101015224.803 3  96806221.327 7
                  24668960.707 3        33.900          20.900          45.300

  23281627.953 6  23281635.680 6
 122345767.409 6  95334403.744 4
                  23281636.309 4        40.700          26.500

 18 12  4  0 47  0.0000000  0  9G02G05G06G12G13G15G19G25G29
  21273696.250 8
 111793980.338 8  87112242.177 6
                  21273700.285 6        48.800          41.200

  20878264.406 8  20878270.555 7
 109715989.597 8  85493012.581 7
                  20878270.492 7        51.300          43.100

  22732393.406 7  22732403.922 7  22732403.574 7
 119459402.579 7  93085363.914 5  89206769.803 7
                  22732403.191 5        42.500          30.900          47.000

  23862962.383 6  23862970.367 6
 125400719.065 6  97714831.221 3
                  23862970.715 3        41.100          22.600

  21159276.195 8
 111192781.397 8  86643726.984 6
                  21159283.027 6        49.100          40.100

  23287709.344 7  23287717.531 6
 122377747.625 7  95359313.059 4
                  23287717.176 4        43.700          29.400

  23781444.836 6
 124972272.131 6  97381019.278 4
                  23781452.199 4        39.700          27.000

  24676102.844 5  24676113.883 6  24676114.184 7
 129673680.751 5 101044515.415 3  96834291.485 7
                  24676113.820 3        35.400          20.100          45.400

  23263932.992 6  23263940.051 6
 122252773.547 6  95261941.007 4
                  23263940.512 4        41.700          27.200

 18 12  4  0 47 30.0000000  0  9G02G05G06G12G13G15G19G25G29
  21269830.242 8
 111773665.655 8  87096412.533 6
                  21269834.684 6        49.000          41.600

  20882135.789 8  20882142.012 8
 109736335.770 8  85508866.738 7
                  20882142.434 7        50.700          42.800

  22740243.086 7  22740253.785 7  22740252.957 7
 119500655.139 7  93117508.723 5  89237575.255 7
                  22740253.621 5        43.000          31.600          46.100

  23875334.664 6  23875342.637 6
 125465734.351 6  97765492.369 3
                  23875341.867 3        41.700          22.900

  21145655.219 8
 111121202.692 8  86587951.373 6
                  21145661.914 6        48.700          39.800

  23267172.867 7  23267180.391 6
 122269825.209 7  95275217.681 5
                  23267180.059 5        44.500          30.800

  23801635.414 6
 125078369.534 6  97463692.460 4
                  23801642.578 4        40.400          28.100

  24683305.211 5  24683315.742 6  24683315.633 7
 129711525.856 5 101074004.970 3  96862552.345 7
                  24683315.309 3        35.700          22.000          45.400

  23246286.555 6  23246293.805 6
 122160045.048 6  95189685.070 4
                  23246294.879 4        41.700          27.700

 18 12  4  0 48  0.0000000  0  9G02G05G06G12G13G15G19G25G29
  21265998.281 8
 111753527.961 8  87080720.817 6
                  21266002.387 6        48.800          40.900

  20886044.742 8  20886050.988 8
 109756877.462 8  85524873.253 7
                  20886051.074 7        50.800          42.600

  22748135.539 6  22748146.422 7  22748145.867 7
 119542131.707 6  93149828.093 4  89268547.956 7
                  22748146.414 4        41.300          29.900          47.300

  23887718.680 7  23887726.402 6
 125530812.502 7  97816202.516 3
                  23887726.520 3        42.300          22.300

  21132115.273 8
 111050049.932 8  86532507.657 6
                  21132121.930 6        48.700          40.300

  23246669.875 7  23246677.348 6
 122162083.493 7  95191263.124 5
                  23246677.813 5        43.300          30.100

  23821854.727 6
 125184624.899 6  97546488.714 4
                  23821861.977 4        40.700          28.400

  24690554.133 5  24690565.691 6  24690565.641 7
 129749623.151 5 101103691.118 3  96891001.514 7
                  24690565.133 3        34.200          21.500          45.300

  23228692.531 7  23228698.695 6
 122067584.320 7  95117637.748 4
                  23228698.625 4        42.400          26.200

 18 12  4  0 48 30.0000000  0  9G02G05G06G12G13G15G19G25G29
  21262200.344 8
 111733569.403 8  87065168.676 6
                  21262204.523 6        48.900          41.700

  20889990.531 8  20889996.863 8
 109777613.573 8  85541031.250 7
                  20889997.266 7        50.400          43.200

  22756071.555 7  22756082.148 7  22756082.074 7
 119583833.452 7  93182322.955 5  89299688.847 7
                  22756081.570 5        43.300          31.200          47.400

  23900113.836 6  23900121.863 6
 125595950.901 6  97866959.608 3
                  23900121.691 3        41.800          22.900

  21118657.195 8
 110979326.001 8  86477398.098 6
                  21118664.020 6        48.500          40.400

  23226201.906 7  23226209.895 6
 122054525.496 7  95107451.705 4
                  23226210.172 4        44.300          29.900

  23842104.133 6
 125291036.422 6  97629406.664 4
                  23842110.879 4        39.700          27.400

  24697852.242 6  24697862.527 6  24697862.754 7
 129787970.431 6 101133572.083 3  96919637.422 7
                  24697862.672 3        36.200          21.800          45.800

  23211148.945 7  23211155.883 6
 121975394.482 7  95045801.513 4
                  23211156.090 4        42.300          27.100

 18 12  4  0 49  0.0000000  0  9G02G05G06G12G13G15G19G25G29
  21258436.539 8
 111713792.271 8  87049757.893 6
                  21258440.977 6        48.400          41.100

  20893973.523 8  20893979.746 8
 109798543.047 8  85557339.919 7
                  20893980.016 7        50.500          42.600

  22764050.406 7  22764060.922 7  22764059.746 7
 119625761.748 7  93214994.306 5  89330998.909 7
                  22764060.996 5        42.500          30.900          46.600

  23912520.578 6  23912528.957 6
 125661146.787 6  97917761.490 3
                  23912529.402 3        41.300          22.500

  21105280.789 8
 110909033.835 8  86422624.982 6
                  21105287.633 6        48.700          40.000

  23205770.461 7  23205777.949 6
 121947154.343 7  95023785.904 5
                  23205777.973 5        43.900          30.000

  23862383.477 6
 125397602.095 6  97712444.730 4
                  23862389.770 4        40.000          26.900

  24705196.023 5  24705207.012 6  24705207.422 7
 129826565.696 5 101163646.202 3  96948458.449 7
                  24705206.898 3        34.600          21.700          45.600

  23193657.953 6  23193665.219 6
 121883478.578 6  94974178.764 4
                  23193665.285 4        41.400          28.100

 18 12  4  0 49 30.0000000  0  9G02G05G06G12G13G15G19G25G29
  21254708.453 8
 111694198.851 8  87034490.261 6
                  21254712.301 6        48.800          41.500

  20897992.914 8  20897999.262 8
 109819664.608 8  85573798.267 7
                  20897999.277 7        50.800          42.500

  22772072.352 7  22772083.043 7  22772082.195 7
 119667917.738 7  93247843.083 5  89362478.977 7
                  22772082.316 5        43.000          30.800          46.400

  23924937.477 6  23924944.891 6
 125726397.923 6  97968606.449 3
                  23924946.145 3        40.600          22.200

  21091987.445 8
 110839176.407 8  86368190.619 6
                  21091994.242 6        48.600          40.400

  23185374.648 7  23185382.137 7
 121839973.097 7  94940268.063 5
                  23185382.270 5        44.000          30.900

  23882691.781 6
 125504319.733 6  97795601.182 4
                  23882698.125 4        40.100          26.900

  24712587.945 5  24712598.438 6  24712598.953 7
 129865406.566 5 101193911.716 3  96977462.889 7
                  24712598.289 3        34.600          20.600          46.000

  23176219.820 7  23176226.633 6
 121791839.785 7  94902771.921 4
                  23176227.039 4        42.400          27.600

 18 12  4  0 50  0.0000000  0  9G02G05G06G12G13G15G19G25G29
  21251014.797 8
 111674789.444 8  87019366.027 6
                  21251019.023 6        48.000          41.700

  20902048.133 8  20902054.355 8
 109840975.208 8  85590403.916 7
                  20902054.355 7        50.900          43.000

  22780137.742 7  22780147.883 7  22780147.875 7
 119710300.607 7  93280868.662 5  89394128.502 7
                  22780147.969 5        42.400          31.000          46.500

  23937364.375 7  23937372.219 6
 125791699.899 7  98019491.000 3
                  23937372.355 3        42.000          23.200

  21078776.836 8
 110769754.852 8  86314095.902 6
                  21078783.574 6        49.500          41.200

  23165014.625 7  23165022.367 7
 121732982.917 7  94856899.130 5
                  23165023.090 5        43.000          30.300

  23903026.859 6
 125611185.924 6  97878873.398 4
                  23903034.445 4        39.200          26.700

  24720024.523 5  24720035.715 6  24720035.789 7
 129904488.906 5 101224365.412 3  97006647.668 7
                  24720034.875 3        34.600          19.900          45.800

  23158834.070 7  23158841.551 6
 121700479.350 7  94831581.971 4
                  23158841.555 4        42.400          28.500

 18 12  4  0 50 30.0000000  0  9G02G05G06G12G13G15G19G25G29
  21247356.875 8
 111655566.172 8  87004386.832 6
                  21247360.703 6        49.400          41.600

  20906139.102 8  20906145.430 8
 109862473.428 8  85607155.772 7
                  20906145.656 7        50.300          42.800

  22788245.984 7  22788256.555 7  22788256.262 7
 119752911.500 7  93314071.904 5  89425948.257 7
                  22788256.375 5        42.600          31.100          46.000

  23949799.992 6  23949807.961 6
 125857049.943 6  98070413.027 3
                  23949807.652 3        41.900          22.500

  21065649.828 8
 110700772.074 8  86260343.083 6
                  21065656.566 6        49.200          41.000

  23144692.313 7  23144699.750 7
 121626186.628 7  94773681.264 5
                  23144700.410 5        43.100          30.400

  23923391.992 6
 125718198.097 6  97962259.409 4
                  23923397.723 4        39.200          25.800

  24727507.313 5  24727518.363 6  24727518.477 7
 129943810.486 5 101255005.501 3  97036011.105 7
                  24727517.391 3        34.000          20.100          46.000

  23141503.102 7  23141509.969 6
 121609400.861 7  94760611.729 4
                  23141510.410 4        42.300          28.700

 18 12  4  0 51  0.0000000  0  9G02G05G06G12G13G15G19G25G29
  21243735.008 8
 111636531.656 8  86989554.747 6
                  21243739.094 6        48.400          41.600

  20910265.570 8  20910271.832 8
 109884158.301 8  85624053.072 7
                  20910271.926 7        50.800          43.100

  22796398.438 6  22796408.379 7  22796409.016 7
 119795751.827 6  93347453.942 4  89457939.363 7
                  22796408.621 4        41.400          29.600          45.800

  23962244.961 6  23962252.840 6
 125922445.789 6  98121370.729 3
                  23962252.934 3        41.600          22.600

  21052607.070 8
 110632231.090 8  86206934.524 6
                  21052614.094 6        48.300          40.800

  23124406.477 7  23124414.617 7
 121519587.317 7  94690616.877 5
                  23124415.082 5        42.900          31.200

  23943782.352 6
 125825354.730 6  98045757.947 4
                  23943788.641 4        39.200          25.200

  24735034.859 5  24735046.566 6  24735046.402 7
 129983369.194 5 101285830.401 3  97065551.617 7
                  24735046.031 3        33.200          19.900          44.500

  23124225.578 7  23124232.605 6
 121518607.494 7  94689863.659 4
                  23124232.859 4        43.100          29.600

 18 12  4  0 51 30.0000000  0  9G02G05G06G12G13G15G19G25G29
  21240148.891 8
 111617687.304 8  86974870.822 6
                  21240153.113 6        49.900          41.600

  20914427.102 8  20914433.672 8
 109906028.072 8  85641094.448 7
                  20914433.793 7        51.100          42.500

  22804594.523 7  22804604.973 7  22804605.375 7
 119838822.134 7  93381015.210 5  89490102.257 7
                  22804604.797 5        42.200          30.600          46.400

  23974697.039 6  23974704.984 6
 125987883.875 6  98172361.370 3
                  23974704.777 3        41.700          22.600

  21039648.617 8
 110564134.335 8  86153872.119 6
                  21039655.543 6        49.100          41.200

  23104159.523 7  23104167.637 6
 121413187.404 7  94607707.909 5
                  23104167.785 5        44.200          32.000

  23964200.195 6
 125932652.883 6  98129366.748 4
                  23964207.281 4        40.200          25.000

  24742607.430 5  24742618.910 6  24742618.918 7
 130023162.225 5 101316837.919 3  97095267.076 7
                  24742618.672 3        33.500          19.000          44.500

  23107002.930 7  23107009.563 7
 121428101.619 7  94619339.637 5
                  23107010.145 5        43.700          30.900

 18 12  4  0 52  0.0000000  0  9G02G05G06G12G13G15G19G25G29
  21236599.352 8
 111599035.204 8  86960336.682 6
                  21236603.422 6        49.600          41.100

  20918623.867 8  20918630.207 8
 109928081.346 8  85658278.812 7
                  20918630.406 7        51.300          42.600

  22812834.727 7  22812845.164 7  22812845.086 7
 119882123.139 7  93414756.231 5  89522437.393 7
                  22812845.035 5        42.600          30.500          46.000

  23987157.500 7  23987165.238 6
 126053361.759 7  98223382.962 3
                  23987164.957 3        42.500          22.900

  21026775.328 8
 110496483.939 8  86101157.534 6
                  21026781.934 6        48.800          41.100

  23083951.023 7  23083958.656 6
 121306989.502 7  94524956.324 5
                  23083958.449 5        44.800          31.600

  23984645.813 6
 126040090.146 6  98213083.938 4
                  23984652.664 4        41.100          27.400

  24750223.953 5  24750235.613 6  24750235.426 7
 130063186.906 5 101348025.879 3  97125155.598 7
                  24750235.387 3        33.700          20.400          44.400

  23089834.641 7  23089842.039 6
 121337886.197 7  94549041.920 4
                  23089842.625 4        43.400          29.600

 18 12  4  0 52 30.0000000  0  9G02G05G06G12G13G15G19G25G29
  21233086.867 8
 111580576.654 8  86945953.363 6
                  21233091.008 6        49.000          41.400

  20922855.031 8  20922861.387 8
 109950316.226 8  85675604.684 7
                  20922861.586 7        51.600          42.900

  22821118.172 6  22821129.094 7  22821128.121 7
 119925655.172 6  93448677.261 5  89554945.039 7
                  22821129.004 5        40.500          30.100          45.500

  23999624.000 6  23999632.020 6
 126118875.962 6  98274432.917 4
                  23999632.602 4        41.800          24.900

  21013986.859 8
 110429281.779 8  86048792.224 6
                  21013993.836 6        49.000          40.500

  23063780.750 7  23063788.938 7
 121200995.768 7  94442363.837 5
                  23063788.410 5        43.600          32.000

  24005115.719 6
 126147663.663 6  98296907.348 4
                  24005123.055 4        39.400          25.800

  24757884.891 6  24757895.270 6  24757895.211 7
 130103440.203 6 101379392.022 3  97155214.754 7
                  24757895.195 3        36.300          22.000          44.100

  23072724.016 7  23072730.344 6
 121247963.562 7  94478972.337 4
                  23072730.652 4        44.700          29.900

 18 12  4  0 53  0.0000000  0  9G02G05G06G12G13G15G19G25G29
  21229611.891 8
 111562314.241 8  86931722.888 6
                  21229615.680 6        49.100          41.400

  20927120.539 8  20927126.961 8
 109972731.858 8  85693071.406 7
                  20927126.891 7        50.700          42.400

  22829446.352 6  22829457.227 7  22829456.762 7
 119969419.727 6  93482779.493 5  89587626.314 7
                  22829457.250 5        41.700          30.900          46.400

  24012098.320 7  24012105.789 6
 126184424.208 7  98325509.346 4
                  24012105.820 4        43.200          25.400

  21001284.695 8
 110362531.229 8  85996778.809 6
                  21001291.563 6        49.000          41.100

  23043650.328 7  23043657.902 7
 121095209.411 7  94359932.961 5
                  23043658.219 5        43.700          31.300

  24025612.180 6
 126255371.827 6  98380835.608 4
                  24025619.223 4        39.500          25.500

  24765588.344 6  24765598.637 6  24765598.078 7
 130143920.140 6 101410934.746 3  97185443.146 7
                  24765597.977 3        36.700          21.800          42.900

  23055668.508 7  23055674.695 6
 121158336.972 7  94409133.437 5
                  23055675.219 5        43.900          30.400

 18 12  4  0 53 30.0000000  0  9G02G05G06G12G13G15G19G25G29
  21226174.500 8
 111544249.331 8  86917646.305 7
                  21226178.180 7        49.100          42.000

  20931420.180 8  20931426.422 8
 109995325.568 8  85710676.885 7
                  20931426.477 7        50.300          43.200

  22837818.859 7  22837829.359 7  22837828.742 7
 120013416.746 7  93517062.864 5  89620481.201 7
                  22837828.926 5        42.100          32.100          45.500

  24024576.523 6  24024584.746 6
 126250002.881 6  98376609.511 4
                  24024584.871 4        41.700          24.600

  20988668.695 8
 110296234.027 8  85945118.654 6
                  20988675.680 6        48.600          40.900

  23023559.750 7  23023567.480 7
 120989632.444 7  94277665.226 5
                  23023567.328 5        43.900          31.500

  24046134.203 6
 126363211.273 6  98464866.193 4
                  24046140.844 4        41.400          27.000

  24773332.781 6  24773344.313 6  24773344.566 7
 130184623.357 6 101442651.429 3  97215838.271 7
                  24773344.500 3        38.400          22.500          44.100

  23038669.609 7  23038676.172 6
 121069008.964 7  94339527.211 4
                  23038676.262 4        43.200          29.500

 18 12  4  0 54  0.0000000  0  9G02G05G06G12G13G15G19G25G29
  21222774.586 8
 111526383.981 8  86903725.214 6
                  21222778.590 6        48.500          41.400

  20935753.164 8  20935759.785 8
 110018096.286 8  85728420.283 7
                  20935759.602 7        50.400          42.800

  22846235.602 6  22846246.246 7  22846246.500 7
 120057647.252 6  93551528.168 5  89653510.429 7
                  22846246.039 5        41.100          31.600          46.400

  24037061.859 7  24037070.051 6
 126315609.486 7  98427731.402 3
                  24037069.574 3        43.100          23.800

  20976139.375 8
 110230392.858 8  85893813.849 6
                  20976146.484 6        48.500          40.800

  23003509.273 7  23003516.824 6
 120884267.642 7  94195562.795 5
                  23003517.211 5        44.000          30.700

  24066678.891 6
 126471180.205 6  98548997.705 4
                  24066686.328 4        39.400          24.700

  24781122.016 6  24781132.480 6  24781131.969 7
 130225547.432 6 101474540.212 3  97246398.386 7
                  24781132.242 3        39.400          22.200          43.900

  23021728.063 7  23021735.172 6
 120979982.297 7  94270155.803 4
                  23021735.219 4        42.700          28.900

 18 12  4  0 54 30.0000000  0  9G02G05G06G12G13G15G19G25G29
  21219412.906 8
 111508720.181 8  86889961.184 6
                  21219417.371 6        49.300          41.100

  20940119.617 8  20940126.422 8
 110041042.695 8  85746300.594 7
                  20940126.340 7        50.300          42.800

  22854697.391 7  22854707.660 7  22854707.508 7
 120102112.269 7  93586176.201 5  89686714.802 7
                  22854707.820 5        42.100          32.200          46.200

  24049551.039 7  24049559.578 6
 126381241.009 7  98478872.728 4
                  24049559.633 4        42.200          24.200

  20963697.688 8
 110165010.159 8  85842866.294 6
                  20963704.563 6        48.500          41.300

  22983499.297 7  22983507.504 7
 120779117.819 7  94113627.868 5
                  22983507.980 5        43.700          30.800

  24087249.344 6
 126579276.437 6  98633228.372 4
                  24087256.566 4        38.600          25.800

  24788951.297 6  24788961.195 6  24788960.445 7
 130266690.001 6 101506599.253 3  97277121.625 7
                  24788960.758 3        39.200          22.000          43.100

  23004845.094 7  23004851.559 6
 120891259.985 7  94201021.530 4
                  23004851.703 4        42.800          29.000

 18 12  4  0 55  0.0000000  0  9G02G05G06G12G13G15G19G25G29
  21216090.438 8
 111491259.822 8  86876355.699 7
                  21216094.598 7        48.900          42.100

  20944519.039 8  20944525.840 8
 110064163.004 8  85764316.406 7
                  20944525.809 7        50.800          42.300

  22863203.289 6  22863214.410 7  22863213.973 7
 120146812.395 6  93621007.420 5  89720094.721 7
                  22863213.598 5        41.400          32.000          47.000

  24062044.203 7  24062052.465 6
 126446894.468 7  98530031.158 4
                  24062052.652 4        42.700          24.300

  20951343.727 8
 110100088.565 8  85792278.033 6
                  20951350.441 6        48.700          41.000

  22963531.586 7  22963540.191 7
 120674185.560 7  94031862.492 5
                  22963540.223 5        44.100          31.500

  24107842.891 6
 126687496.963 6  98717555.876 4
                  24107850.633 4        38.200          26.600

  24796820.672 5  24796831.684 6  24796831.363 7
 130308048.205 5 101538826.365 3  97308005.892 7
                  24796831.344 3        35.500          20.400          43.100

  22988020.219 7  22988026.219 6
 120802844.953 7  94132126.711 4
                  22988026.508 4        42.900          28.800

 18 12  4  0 55 30.0000000  0  9G02G05G06G12G13G15G19G25G29
  21212806.969 8
 111474005.155 8  86862910.497 6
                  21212811.355 6        49.500          41.700

  20948951.844 8  20948958.188 8
 110087455.750 8  85782466.590 7
                  20948958.293 7        50.600          42.300

  22871754.266 7  22871765.293 7  22871764.871 7
 120191748.281 7  93656022.337 5  89753650.652 7
                  22871764.910 5        42.200          32.400          46.300

  24074542.531 7  24074550.387 6
 126512567.443 7  98581204.799 3
                  24074550.004 3        43.400          23.900

  20939077.703 8
 110035630.155 8  85742050.701 6
                  20939084.637 6        48.600          41.400

  22943605.633 7  22943613.305 7
 120569473.063 7  93950268.347 5
                  22943614.047 5        44.300          31.200

  24128460.641 6
 126795839.534 6  98801978.507 3
                  24128467.496 3        37.900          23.300

  24804731.586 5  24804742.848 6  24804742.199 7
 130349619.436 5 101571219.447 3  97339049.230 7
                  24804742.738 3        35.100          22.900          42.800

  22971253.969 7  22971261.117 6
 120714739.678 7  94063473.270 4
                  22971261.391 4        42.400          29.100

 18 12  4  0 56  0.0000000  0  9G02G05G06G12G13G15G19G25G29
  21209562.438 8
 111456956.662 8  86849625.952 6
                  21209567.359 6        49.600          41.100

  20953416.867 8  20953423.473 8
 110110919.388 8  85800749.929 7
                  20953423.441 7        50.200          43.000

  22880349.766 7  22880361.012 7  22880360.453 7
 120236920.083 7  93691221.056 5  89787382.767 7
                  22880360.836 5        42.600          31.500          46.000

  24087042.094 7  24087050.691 6
 126578256.039 7  98632390.586 3
                  24087050.383 3        42.500          23.500

  20926899.758 8
 109971636.896 8  85692185.825 6
                  20926907.121 6        48.600          40.900

  22923722.016 7  22923730.242 7
 120464982.676 7  93868847.279 5
                  22923730.090 5        43.600          30.900

  24149100.336 6
 126904301.210 6  98886493.907 4
                  24149106.625 4        39.300          25.600

  24812682.875 6  24812693.609 6  24812692.172 7
 130391400.381 6 101603775.923 3  97370249.217 7
                  24812693.090 3        37.500          21.500          42.100

  22954547.875 7  22954554.641 7
 120626946.774 7  93995063.240 5
                  22954555.449 5        44.200          30.700

 18 12  4  0 56 30.0000000  0  9G02G05G06G12G13G15G19G25G29
  21206358.195 7
 111440116.807 7  86836503.977 6
                  21206362.621 6        47.300          41.000

  20957914.039 8  20957920.355 8
 110134551.867 8  85819164.828 7
                  20957920.441 7        50.400          42.400

  22888991.422 7  22889002.285 7  22889002.066 7
 120282328.492 7  93726604.203 5  89821291.600 7
                  22889001.922 5        42.200          31.800          46.400

  24099544.688 7  24099552.941 6
 126643957.619 7  98683586.534 4
                  24099552.867 4        43.200          24.400

  20914811.336 8
 109908110.935 8  85642685.077 6
                  20914818.480 6        48.700          41.400

  22903880.930 7  22903889.059 7
 120360717.077 7  93787601.362 5
                  22903889.035 5        44.300          31.500

  24169762.148 6
 127012879.467 6  98971100.195 4
                  24169768.742 4        39.200          24.900

  24820672.156 6  24820683.734 6  24820682.461 7
 130433388.398 6 101636493.820 4  97401603.796 7
                  24820683.086 4        37.900          24.300          42.700

  22937900.992 7  22937907.582 6
 120539468.695 7  93926898.506 4
                  22937908.441 4        42.600          29.000

 18 12  4  0 57  0.0000000  0  9G02G05G06G12G13G15G19G25G29
  21203193.805 8
 111423487.794 8  86823546.283 6
                  21203198.258 6        48.300          41.500

  20962443.250 8  20962449.434 8
 110158352.087 8  85837710.451 7
                  20962449.391 7        50.300          42.400

  22897677.320 6  22897688.234 7  22897688.109 7
 120327974.580 6  93762172.554 5  89855377.921 7
                  22897688.469 5        40.200          31.100          46.000

  24112049.539 7  24112057.938 6
 126709669.651 7  98734790.601 4
                  24112057.914 4        42.100          24.200

  20902812.375 8
 109845054.769 8  85593550.405 6
                  20902819.035 6        48.600          41.100

  22884083.141 7  22884091.250 7
 120256678.969 7  93706532.727 5
                  22884091.215 5        44.900          31.900

  24190445.328 6
 127121572.517 6  99055795.900 3
                  24190452.824 3        37.900          22.800

  24828700.953 6  24828712.414 6  24828711.910 7
 130475581.143 6 101669371.176 3  97433111.243 7
                  24828712.313 3        38.100          22.300          43.700

  22921315.398 7  22921322.270 6
 120452308.490 7  93858981.471 5
                  22921322.379 5        43.100          31.000

 18 12  4  0 57 30.0000000  0  9G02G05G06G12G13G15G19G25G29
  21200070.102 8
 111407071.557 8  86810754.372 6
                  21200074.293 6        48.300          41.400

  20967004.000 8  20967010.305 8
 110182318.688 8  85856385.715 7
                  20967010.313 7        50.500          42.500

  22906408.773 6  22906419.559 7  22906419.250 7
 120373859.124 6  93797926.740 5  89889642.335 7
                  22906419.031 5        41.200          31.600          46.100

  24124556.336 7  24124563.906 6
 126775389.348 7  98786000.608 4
                  24124563.902 4        42.300          24.400

  20890903.148 8
 109782471.012 8  85544783.836 6
                  20890909.637 6        48.900          41.300

  22864328.859 7  22864336.992 7
 120152871.207 7  93625643.590 5
                  22864337.406 5        44.500          31.600

  24211151.820 6
 127230377.957 6  99140579.184 4
                  24211158.348 4        39.400          25.900

  24836769.469 6  24836779.789 6  24836780.418 7
 130517975.948 6 101702406.006 3  97464769.619 7
                  24836779.762 3        39.000          23.200          44.600

  22904790.648 7  22904797.277 6
 120365469.151 7  93791314.458 5
                  22904797.504 5        43.500          30.400

 18 12  4  0 58  0.0000000  0  9G02G05G06G12G13G15G19G25G29
  21196987.078 7
 111390869.508 7  86798129.374 6
                  21196991.313 6        47.300          41.300

  20971595.719 8  20971601.867 7
 110206449.597 8  85875189.007 7
                  20971602.090 7        50.300          42.500

  22915185.578 7  22915196.523 7  22915196.348 7
 120419982.300 7  93833866.829 5  89924084.907 7
                  22915196.176 5        42.000          30.300          46.000

  24137062.711 7  24137070.996 6
 126841113.179 7  98837213.872 4
                  24137070.750 4        42.100          24.300

  20879083.820 8
 109720361.475 8  85496386.784 6
                  20879090.730 6        49.200          41.600

  22844619.148 7  22844627.277 7
 120049295.838 7  93544935.529 5
                  22844627.379 5        44.500          31.700

  24231877.773 6
 127339292.712 6  99225447.633 4
                  24231884.688 4        39.900          25.300

  24844874.227 6  24844885.414 6  24844885.250 7
 130560569.776 6 101735595.905 3  97496576.564 7
                  24844884.984 3        38.800          22.300          43.300

  22888327.117 7  22888333.578 6
 120278953.016 7  93723899.300 4
                  22888333.609 4        43.400          29.500

 18 12  4  0 58 30.0000000  0  9G02G05G06G12G13G15G19G25G29
  21193945.063 8
 111374884.577 8  86785673.554 6
                  21193949.387 6        48.000          41.600

  20976218.750 8  20976225.359 8
 110230744.463 8  85894120.066 7
                  20976225.277 7        50.500          42.500

  22924008.789 6  22924019.219 7  22924019.422 7
 120466345.586 6  93869994.036 5  89958706.806 7
                  22924019.160 5        41.700          30.200          46.300

  24149569.523 6  24149578.508 6
 126906839.245 6  98888428.891 3
                  24149578.543 3        41.700          22.900

  20867355.484 8
 109658729.477 8  85448361.858 7
                  20867362.430 7        49.000          42.000

  22824954.227 7  22824962.215 7
 119945955.997 7  93464411.008 5
                  22824962.523 5        45.100          32.400

  24252622.969 6
 127448314.985 6  99310399.879 4
                  24252631.383 4        38.800          24.700

  24853016.828 6  24853027.473 6  24853027.848 7
 130603360.732 6 101768939.456 3  97528530.736 7
                  24853027.797 3        37.300          20.400          42.300

  22871925.609 7  22871932.316 6
 120192763.513 7  93656738.635 5
                  22871932.543 5        43.900          30.400

 18 12  4  0 59  0.0000000  0  9G02G05G06G12G13G15G19G25G29
  21190944.805 7
 111359117.324 7  86773387.353 6
                  21190948.707 6        47.500          41.100

  20980872.586 8  20980879.098 8
 110255200.496 8  85913176.699 7
                  20980879.203 7        49.900          42.100

  22932876.594 6  22932887.832 7  22932886.500 7
 120512948.652 6  93906308.098 5  89993507.790 7
                  22932887.711 5        41.600          30.700          45.700

  24162076.555 7  24162084.523 6
 126972563.753 7  98939642.659 3
                  24162085.203 3        42.200          23.800

  20855718.430 8
 109597575.759 8  85400709.611 7
                  20855725.430 7        48.800          42.000

  22805334.773 7  22805342.246 7
 119842853.536 7  93384071.439 5
                  22805342.727 5        45.100          31.900

  24273389.203 6
 127557441.649 6  99395433.448 3
                  24273396.785 3        37.300          22.900

  24861196.625 6  24861207.734 6  24861208.160 7
 130646345.045 6 101802433.608 3  97560629.310 7
                  24861206.941 3        37.600          20.100          43.400

  22855586.430 7  22855593.730 7
 120106902.776 7  93589834.165 5
                  22855593.840 5        43.700          30.200

 18 12  4  0 59 30.0000000  0  9G02G05G06G12G13G15G19G25G29
  21187986.492 7
 111343570.778 7  86761273.133 6
                  21187990.633 6        47.900          41.600

  20985556.906 8  20985563.586 8
 110279817.161 8  85932358.505 7
                  20985563.738 7        50.200          42.100

  22941790.766 6  22941801.813 7  22941801.879 7
 120559792.983 6  93942810.144 4  90028488.907 7
                  22941801.379 4        39.700          29.600          46.700

  24174583.633 7  24174591.301 6
 127038284.714 7  98990853.682 4
                  24174591.664 4        42.600          24.300

  20844173.203 8
 109536903.584 8  85353432.587 6
                  20844179.926 6        50.000          41.600

  22785760.305 7  22785768.512 7
 119739991.638 7  93303919.324 5
                  22785768.586 5        45.700          31.400

  24294175.328 6
 127666670.943 6  99480547.009 3
                  24294182.652 3        38.200          22.300

  24869412.813 6  24869423.945 6  24869423.793 7
 130689520.823 6 101836076.987 3  97592870.904 7
                  24869423.453 3        36.900          18.600          42.300

  22839311.305 7  22839318.141 7
 120021373.848 7  93523188.264 5
                  22839318.168 5        43.800          31.000

 18 12  4  1  0  0.0000000  0  9G02G05G06G12G13G15G19G25G29
  21185070.148 7
 111328245.748 7  86749331.530 6
                  21185074.531 6        47.600          41.300

  20990271.523 8  20990277.910 8
 110304592.005 8  85951663.571 6
                  20990277.973 6        49.900          41.500

  22950751.000 6  22950762.258 7  22950761.227 7
 120606878.263 6  93979499.944 5  90063649.962 7
                  22950761.809 5        40.800          30.400          46.200

  24187088.727 6  24187096.570 6
 127103998.480 6  99042059.108 4
                  24187096.852 4        41.400          24.700

  20832719.203 8
 109476714.502 8  85306532.008 6
                  20832726.465 6        49.000          41.600

  22766232.656 7  22766240.152 6
 119637372.022 7  93223956.013 5
                  22766240.680 5        45.400          31.900

  24314980.430 6
 127775999.796 6  99565738.170 4
                  24314988.277 4        38.300          26.200

  24877664.656 5  24877675.871 6  24877675.098 6
 130732884.479 5 101869866.761 3  97625252.713 6
                  24877675.844 3        35.900          21.500          40.600

  22823099.445 7  22823105.336 6
 119936179.095 7  93456802.748 5
                  22823106.164 5        44.400          30.800

 18 12  4  1  0 30.0000000  0  9G02G05G06G12G13G15G19G25G29
  21182196.648 8
 111313144.185 8  86737564.066 6
                  21182200.648 6        48.300          41.500

  20995015.930 8  20995022.621 7
 110329523.685 8  85971090.829 7
                  20995022.078 7        50.000          42.300

  22959756.711 6  22959768.102 7  22959767.254 7
 120654205.251 6  94016378.075 5  90098991.526 7
                  22959767.598 5        40.500          30.200          46.500

  24199591.711 7  24199599.785 6
 127169702.108 7  99093256.604 3
                  24199599.707 3        43.100          23.900

  20821358.398 8
 109417010.714 8  85260009.579 7
                  20821365.148 7        49.400          42.000

  22746751.828 7  22746759.234 6
 119534997.273 7  93144183.484 5
                  22746759.574 5        45.700          32.200

  24335802.813 6
 127885425.751 6  99651004.959 3
                  24335810.773 3        37.300          23.200

  24885951.273 6  24885963.484 6  24885963.559 7
 130776433.440 6 101903800.939 3  97657772.968 7
                  24885962.906 3        36.100          20.400          43.200

  22806951.273 7  22806958.406 6
 119851321.180 7  93390679.707 5
                  22806958.426 5        43.800          30.700

 18 12  4  1  1  0.0000000  0  9G02G05G06G12G13G15G19G25G29
  21179365.563 8
 111298268.194 8  86725972.365 6
                  21179369.969 6        48.300          41.400

  20999789.961 8  20999795.832 8
 110354610.358 8  85990638.878 6
                  20999796.340 6        49.700          41.700

  22968808.828 6  22968820.258 7  22968819.910 7
 120701774.594 6  94053445.087 4  90134514.064 7
                  22968819.777 4        40.500          29.800          47.100

  24212091.781 6  24212100.145 6
 127235392.759 6  99144444.028 3
                  24212100.523 3        41.600          23.800

  20810090.086 8
 109357794.112 8  85213866.784 7
                  20810096.430 7        49.100          42.500

  22727317.320 7  22727324.852 6
 119432870.063 7  93064603.850 5
                  22727324.863 5        44.900          31.900

  24356643.719 6
 127994946.193 6  99736345.390 3
                  24356653.168 3        37.000          21.800

  24894273.164 6  24894285.586 6  24894285.035 6
 130820165.102 6 101937877.486 3  97690429.606 6
                  24894284.676 3        37.600          21.300          41.700

  22790868.125 7  22790874.727 7
 119766802.875 7  93324821.296 5
                  22790875.090 5        44.100          30.200

 18 12  4  1  1 30.0000000  0  9G02G05G06G12G13G15G19G25G29
  21176578.117 8
 111283620.173 8  86714558.297 6
                  21176582.570 6        48.200          41.400

  21004593.008 8  21004599.563 7
 110379851.956 8  86010307.626 7
                  21004599.461 7        50.000          42.100

  22977908.234 6  22977919.223 7  22977918.867 7
 120749587.625 6  94090701.952 5  90170218.534 7
                  22977919.016 5        40.200          30.600          47.600

  24224589.188 6  24224598.258 6
 127301068.380 6  99195619.757 4
                  24224598.617 4        40.900          24.600

  20798914.383 8
 109299067.838 8  85168106.059 6
                  20798921.246 6        48.800          41.600

  22707930.656 7  22707938.832 7
 119330993.679 7  92985219.666 5
                  22707938.527 5        45.000          32.100

  24377503.766 6
 128104559.748 6  99821758.335 3
                  24377511.359 3        37.100          22.600

  24902629.945 6  24902641.820 6  24902639.684 6
 130864077.344 6 101972094.701 3  97723221.115 6
                  24902641.438 3        37.500          21.800          40.400

  22774849.297 7  22774856.621 7
 119682627.504 7  93259230.103 5
                  22774856.871 5        44.500          31.300

 18 12  4  1  2  0.0000000  0  9G02G05G06G12G13G15G19G25G29
  21173834.469 8
 111269201.262 8  86703322.762 6
                  21173838.789 6        49.300          41.300

  21009425.172 8  21009431.902 8
 110405245.995 8  86030095.180 6
                  21009432.152 6        49.700          41.700

  22987052.500 6  22987063.656 7  22987063.809 7
 120797644.137 6  94128148.537 5  90206104.840 7
                  22987063.871 5        40.300          30.400          47.300

  24237083.750 6  24237093.109 6
 127366725.520 6  99246781.019 4
                  24237093.023 4        40.900          24.400

  20787832.602 8
 109240833.274 8  85122728.481 6
                  20787839.523 6        48.900          41.500

  22688592.320 7  22688600.215 7
 119229369.555 7  92906032.069 5
                  22688600.266 5        45.300          32.800

  24398379.336 6
 128214263.012 6  99907241.239 4
                  24398387.586 4        37.400          24.700

  24911019.641 6  24911031.742 6  24911031.953 6
 130908166.632 6 102006449.898 3  97756144.799 6
                  24911031.656 3        38.300          22.200          41.900

  22758897.359 7  22758904.348 6
 119598796.931 7  93193907.587 5
                  22758904.488 5        44.700          30.200

 18 12  4  1  2 30.0000000  0  9G02G05G06G12G13G15G19G25G29
  21171134.523 8
 111255013.144 8  86692267.062 6
                  21171138.594 6        48.200          41.200

  21014286.430 8  21014292.836 7
 110430790.793 8  86050000.194 6
                  21014292.891 6        50.900          41.400

  22996243.195 6  22996255.586 7  22996255.180 7
 120845944.517 6  94165785.175 5  90242173.274 7
                  22996255.117 5        40.500          31.000          47.300

  24249574.031 6  24249582.676 6
 127432360.883 6  99297925.347 4
                  24249582.113 4        41.100          25.300

  20776845.070 8
 109183092.205 8  85077735.444 7
                  20776851.836 7        49.500          42.000

  22669302.625 7  22669310.453 7
 119128000.293 7  92827043.049 5
                  22669310.250 5        45.400          32.900

  24419271.805 6
 128324053.039 6  99992791.718 3
                  24419280.000 3        38.600          22.900

  24919443.523 6  24919454.438 6  24919455.000 7
 130952430.039 6 102040940.781 3  97789198.562 7
                  24919453.805 3        39.600          22.900          42.100

  22743010.938 7  22743018.406 6
 119515314.007 7  93128855.937 5
                  22743018.211 5        44.300          31.000

 18 12  4  1  3  0.0000000  0  9G02G05G06G12G13G15G19G25G29
  21168478.648 8
 111241057.725 8  86681392.684 6
                  21168483.230 6        49.200          41.900

  21019175.969 8  21019182.086 8
 110456484.657 8  86070021.366 6
                  21019182.652 6        50.000          41.800

  23005482.063 6  23005493.066 7  23005492.492 7
 120894489.455 6  94203612.353 4  90278424.312 7
                  23005492.824 4        40.300          29.900          46.700

  24262059.773 6  24262067.910 6
 127497972.307 6  99349051.031 3
                  24262067.449 3        40.100          23.900

  20765951.719 8
 109125846.483 8  85033128.396 7
                  20765958.422 7        48.900          42.000

  22650061.836 7  22650069.289 7
 119026888.600 7  92748254.746 5
                  22650069.293 5        45.700          33.200

  24440180.906 6
 128433927.950 6 100078408.349 3
                  24440188.191 3        37.300          23.000

  24927898.969 6  24927909.375 5  24927910.156 6
 130996864.967 6 102075565.276 3  97822380.360 6
                  24927909.156 3        39.500          20.900          41.600

  22727191.438 7  22727198.258 6
 119432181.452 7  93064077.374 5
                  22727198.301 5        45.100          30.400

 18 12  4  1  3 30.0000000  0  9G02G05G06G12G13G15G19G25G29
  21165868.266 7
 111227337.901 7  86670701.894 6
                  21165872.316 6        47.700          41.800

  21024093.391 8  21024100.004 7
 110482327.446 8  86090158.587 6
                  21024100.094 6        49.600          41.400

  23014766.188 6  23014777.125 7  23014777.652 7
 120943280.297 6  94241631.147 5  90314858.983 7
                  23014776.699 5        41.400          30.200          47.900

  24274540.313 6  24274549.219 6
 127563557.501 6  99400156.254 3
                  24274548.707 3        40.800          23.200

  20755153.219 8
 109069099.617 8  84988910.066 6
                  20755159.590 6        49.100          41.800

  22630870.047 7  22630877.469 7
 118926037.558 7  92669669.556 5
                  22630877.879 5        45.900          33.000

  24461104.102 6
 128543886.124 6 100164089.829 3
                  24461112.176 3        36.600          22.300

  24936387.258 6  24936398.008 5  24936398.711 7
 131041469.483 6 102110321.956 3  97855688.840 7
                  24936397.707 3        39.000          20.900          42.700

  22711438.656 7  22711446.102 6
 119349402.523 7  92999574.294 5
                  22711445.809 5        43.900          30.400

 18 12  4  1  4  0.0000000  0  9G02G05G06G12G13G15G19G25G29
  21163302.523 8
 111213855.503 8  86660196.093 6
                  21163306.934 6        48.000          41.800

  21029039.180 8  21029045.770 7
 110508317.656 8  86110410.673 7
                  21029046.086 7        50.000          42.100

  23024097.766 6  23024108.977 7  23024109.082 7
 120992317.386 6  94279841.840 5  90351477.545 7
                  23024108.723 5        41.300          30.900          47.500

  24287014.734 6  24287023.363 6
 127629113.375 6  99451238.639 3
                  24287023.988 3        39.900          22.300

  20744449.680 8
 109012853.300 8  84945081.766 6
                  20744456.094 6        49.600          41.900

  22611729.094 7  22611736.723 7
 118825449.679 7  92591289.416 5
                  22611736.695 5        46.500          33.000

  24482043.469 5
 128653924.692 5 100249833.994 3
                  24482052.652 3        35.700          22.300

  24944906.758 6  24944918.273 6  24944918.492 6
 131086240.668 6 102145208.500 3  97889121.757 6
                  24944917.488 3        39.600          20.100          41.400

  22695754.852 7  22695761.285 6
 119266979.906 7  92935348.902 4
                  22695761.496 4        44.600          29.800

 18 12  4  1  4 30.0000000  0  9G02G05G06G12G13G15G19G25G29
  21160782.664 8
 111200611.118 8  86649875.766 6
                  21160786.879 6        48.800          41.700

  21034012.656 8  21034019.313 8
 110534452.099 8  86130775.151 6
                  21034019.699 6        49.600          41.700

  23033476.711 6  23033487.531 7  23033486.684 7
 121041600.388 6  94318244.127 4  90388279.759 7
                  23033486.910 4        41.300          28.400          46.400

  24299483.484 6  24299492.785 6
 127694636.343 6  99502295.412 3
                  24299492.480 3        39.800          22.900

  20733841.555 8
 108957108.393 8  84901644.184 7
                  20733848.449 7        49.600          42.200

  22592638.180 7  22592645.184 7
 118725126.389 7  92513115.458 5
                  22592645.949 5        46.200          33.100

  24502998.445 6
 128764040.365 6 100335638.228 3
                  24503006.879 3        36.800          21.800

  24953457.219 6  24953469.035 6  24953468.504 6
 131131174.779 6 102180222.055 3  97922676.390 6
                  24953468.270 3        38.900          21.700          40.200

  22680138.406 7  22680145.086 6
 119184915.625 7  92871402.693 5
                  22680145.375 5        44.700          30.500

 18 12  4  1  5  0.0000000  0  9G02G05G06G12G13G15G19G25G29
  21158307.734 7
 111187607.428 7  86639743.000 7
                  21158312.129 7        47.800          42.100

  21039013.266 8  21039019.820 7
 110560730.702 8  86151251.960 6
                  21039020.063 6        49.700          41.300

  23042901.297 6  23042912.184 7  23042912.102 7
 121091130.438 6  94356838.945 4  90425266.436 7
                  23042911.813 4        41.100          29.600          47.200

  24311945.289 6  24311954.145 6
 127760124.197 6  99553324.802 3
                  24311954.223 3        40.600          22.600

  20723329.500 8
 108901867.686 8  84858599.492 7
                  20723336.516 7        49.700          42.000

  22573598.164 7  22573605.672 6
 118625070.680 7  92435149.996 5
                  22573605.746 5        46.000          33.800

  24523967.375 5
 128874231.282 5 100421501.097 3
                  24523975.688 3        35.600          21.100

  24962038.719 6  24962049.875 6  24962050.320 6
 131176269.752 6 102215360.894 3  97956351.097 6
                  24962049.758 3        39.400          21.500          41.100

  22664590.297 7  22664597.043 6
 119103212.742 7  92807738.140 5
                  22664597.914 5        44.900          30.000

 18 12  4  1  5 30.0000000  0 10G02G05G06G12G13G15G19G25G29G30
  21155879.164 8
 111174846.078 8  86629799.063 7
                  21155883.656 7        48.400          42.400

  21044041.094 8  21044047.379 7
 110587151.395 8  86171839.510 7
                  21044047.301 7        49.500          42.200

  23052374.094 6  23052384.188 7  23052384.895 7
 121140907.817 6  94395626.492 4  90462437.836 7
                  23052384.250 4        41.000          29.600          47.100

  24324400.234 6  24324408.852 6
 127825573.960 6  99604324.499 3
                  24324408.883 3        40.800          22.000

  20712914.141 8
 108847132.816 8  84815948.946 7
                  20712920.875 7        49.400          42.000

  22554609.461 7  22554616.887 7
 118525284.898 7  92357394.881 5
                  22554617.109 5        46.400          33.900

  24544949.930 5
 128984494.848 5 100507420.569 3
                  24544958.305 3        35.900          22.200

  24970649.906 6  24970661.332 6  24970662.770 7
 131221522.586 6 102250622.750 3  97990143.672 7
                  24970660.758 3        38.400          19.300          42.100

  22649112.398 7  22649118.969 6
 119021873.655 7  92744357.014 5
                  22649119.766 5        44.500          31.100

  24609883.281 4                  24609893.203 6
                                  96574465.750 6
                                        29.600                          36.000

 18 12  4  1  6  0.0000000  0  9G02G05G06G12G13G15G19G25G29
  21153497.484 7
 111162329.150 7  86620045.596 6
                  21153501.820 6        47.600          41.800

  21049095.641 8  21049101.883 7
 110613713.132 8  86192536.949 6
                  21049102.230 6        49.600          41.400

  23061893.289 6  23061904.203 7  23061904.656 7
 121190933.282 6  94434607.311 4  90499794.450 7
                  23061903.246 4        41.400          28.300          47.200

  24336847.555 6  24336856.336 6
 127890983.067 6  99655292.532 3
                  24336855.332 3        39.700          22.200

  20702595.195 8
 108792906.208 8  84773694.445 7
                  20702601.848 7        50.000          42.300

  22535672.734 7  22535680.773 7
 118425771.939 7  92279852.355 5
                  22535680.738 5        46.800          34.300

  24565945.984 5
 129094828.819 5 100593394.892 3
                  24565954.551 3        35.800          22.500

  24979291.477 6  24979301.992 5  24979302.684 7
 131266930.734 6 102286005.681 3  98024052.288 7
                  24979301.902 3        39.200          21.500          42.100

  22633703.883 7  22633710.430 6
 118940901.323 7  92681261.681 5
                  22633710.723 5        44.500          30.400

 18 12  4  1  6 30.0000000  0  9G02G05G06G12G13G15G19G25G29
  21151162.289 8
 111150058.556 8  86610484.079 7
                  21151166.863 7        48.600          42.400

  21054176.703 8  21054183.211 7
 110640414.767 8  86213343.386 6
                  21054182.977 6        49.600          41.500

  23071460.813 6  23071471.000 7  23071470.762 7
 121241207.437 6  94473781.935 4  90537336.782 7
                  23071470.992 4        40.600          28.600          46.300

  24349285.664 6  24349294.488 6
 127956349.103 6  99706226.985 3
                  24349294.883 3        39.700          22.500

  20692372.984 8
 108739189.771 8  84731837.483 7
                  20692379.992 7        50.300          42.600

  22516788.828 7  22516796.609 7
 118326533.842 7  92202523.999 5
                  22516796.184 5        47.000          33.700

  24586954.781 6
 129205231.125 6 100679422.477 3
                  24586963.973 3        37.300          22.500

  24987960.555 6  24987972.793 6  24987971.918 6
 131312491.638 6 102321507.553 3  98058074.865 6
                  24987971.844 3        39.200          20.400          40.600

  22618365.563 7  22618372.113 7
 118860298.328 7  92618454.169 5
                  22618372.832 5        45.300          30.800

 18 12  4  1  7  0.0000000  0  9G02G05G06G12G13G15G19G25G29
  21148875.047 8
 111138036.188 8  86601115.978 7
                  21148879.070 7        48.300          42.600

  21059284.063 8  21059290.551 8
 110667254.523 8  86234257.467 6
                  21059290.738 6        49.600          41.800

  23081074.641 6  23081085.102 7  23081085.535 7
 121291730.613 6  94513150.610 4  90575065.088 7
                  23081085.137 4        40.700          28.100          46.600

  24361715.656 6  24361725.348 6
 128021668.882 6  99757125.433 3
                  24361724.285 3        39.200          21.100

  20682248.656 8
 108685985.338 8  84690379.489 7
                  20682255.434 7        49.700          42.200

  22497956.875 7  22497964.578 7
 118227573.430 7  92125412.044 5
                  22497964.727 5        46.400          34.100

  24607976.234 5
 129315699.020 5 100765501.124 3
                  24607985.098 3        35.500          21.300

  24996660.297 6  24996671.148 5  24996671.625 6
 131358202.211 6 102357126.100 3  98092209.265 6
                  24996670.098 3        39.700          19.600          41.600

  22603097.820 7  22603104.707 6
 118780067.280 7  92555936.468 5
                  22603105.027 5        44.900          31.400

 18 12  4  1  7 30.0000000  0  9G02G05G06G12G13G15G19G25G29
  21146634.461 8
 111126263.352 8  86591942.318 6
                  21146638.766 6        48.000          41.800

  21064417.734 8  21064424.113 8
 110694230.801 8  86255277.933 6
                  21064424.191 6        49.900          41.900

  23090736.672 6  23090746.922 7  23090747.688 7
 121342503.038 6  94552713.476 4  90612979.489 7
                  23090747.191 4        40.700          28.500          47.000

  24374136.242 6  24374146.090 6
 128086939.244 6  99807985.355 3
                  24374146.074 3        38.700          21.300

  20672222.109 8
 108633294.437 8  84649321.640 7
                  20672228.582 7        49.500          42.700

  22479178.484 7  22479186.332 7
 118128893.051 7  92048518.279 5
                  22479186.098 5        46.400          33.800

  24629009.961 5
 129426229.292 5 100851628.425 3
                  24629018.016 3        35.800          21.500

  25005386.234 6  25005397.574 6  25005398.422 6
 131404059.524 6 102392858.947 3  98126453.273 6
                  25005396.832 3        37.300          19.600          41.600

  22587901.453 7  22587909.082 6
 118700210.708 7  92493710.550 5
                  22587909.305 5        44.300          31.400

 18 12  4  1  8  0.0000000  0 10G02G05G06G12G13G15G19G25G29G30
  21144441.797 7
 111114741.983 7  86582964.612 6
                  21144446.582 6        47.600          41.900

  21069576.852 8  21069583.090 8
 110721342.084 8  86276403.601 6
                  21069583.105 6        49.500          41.100

  23100445.719 6  23100456.176 7  23100457.070 7
 121393525.129 6  94592470.888 5  90651080.316 7
                  23100456.230 5        41.300          30.500          46.400

  24386547.031 6  24386556.301 6
 128152157.747 6  99858804.818 3
                  24386555.855 3        39.400          20.900

  20662293.352 8
 108581118.974 8  84608665.448 7
                  20662300.016 7        50.300          42.500

  22460453.711 7  22460461.266 7
 118030494.628 7  91971844.235 5
                  22460461.434 5        46.400          33.800

  24650054.992 5
 129536820.070 5 100937802.880 3
                  24650063.410 3        34.800          19.900

  25014140.906 6  25014151.207 5  25014151.387 6
 131450060.701 6 102428703.942 3  98160804.691 6
                  25014150.996 3        40.100          20.600          40.300

  22572777.203 7  22572784.758 7
 118620731.095 7  92431778.393 5
                  22572785.004 5        46.000          31.700

  24588236.398 5  24588248.426 5  24588248.637 6
 129211999.134 5                  96489528.499 6
                                        30.700                          38.700

 18 12  4  1  8 30.0000000  0 10G02G05G06G12G13G15G19G25G29G30
  21142297.758 8
 111103473.759 8  86574184.167 7
                  21142302.250 7        48.400          42.500

  21074761.180 8  21074767.668 7
 110748586.991 8  86297633.378 6
                  21074767.574 6        49.700          41.200

  23110202.336 6  23110212.754 6  23110213.262 7
 121444797.264 6  94632423.130 4  90689367.882 7
                  23110212.727 4        41.100          29.600          46.500

  24398947.258 6  24398956.461 6
 128217321.604 6  99909581.761 3
                  24398956.855 3        39.400          22.500

  20652462.859 8
 108529460.832 8  84568412.354 7
                  20652469.684 7        50.000          42.100

  22441783.609 7  22441790.785 7
 117932380.726 7  91895391.879 5
                  22441791.066 5        46.700          34.400

  24671110.523 6
 129647468.681 6 101024022.434 3
                  24671118.719 3        36.200          21.300

  25022921.289 6  25022931.895 6  25022932.039 6
 131496203.086 6 102464658.898 3  98195261.498 6
                  25022931.879 3        39.400          21.100          40.000

  22557725.320 7  22557731.996 6
 118541631.121 7  92370142.037 5
                  22557732.434 5        45.500          32.300

  24584075.250 5  24584086.543 5  24584086.914 6
 129190130.942 5                  96473198.411 6
                                        31.800                          38.800

 18 12  4  1  9  0.0000000  0 10G02G05G06G12G13G15G19G25G29G30
  21140201.945 8
 111092461.159 8  86565602.908 6
                  21140206.473 6        48.000          41.900

  21079970.914 8  21079977.504 7
 110775964.059 8  86318966.153 6
                  21079977.578 6        49.400          40.600

  23120006.930 6  23120017.129 6  23120017.957 7
 121496320.160 6  94672570.769 4  90727842.687 7
                  23120017.008 4        41.100          28.500          45.900

  24411337.664 6  24411346.832 6
 128282428.311 6  99960314.167 3
                  24411345.879 3        38.300          21.100

  20642731.656 8
 108478321.911 8  84528563.845 7
                  20642738.430 7        48.700          42.200

  22423167.414 7  22423175.090 7
 117834553.879 7  91819163.204 5
                  22423175.133 5        46.900          34.400

  24692177.313 6
 129758172.811 6 101110285.206 3
                  24692185.660 3        36.200          21.800

  25031727.844 6  25031739.844 6  25031739.207 6
 131542483.945 6 102500721.782 3  98229821.759 6
                  25031738.922 3        38.700          21.300          39.900

  22542745.930 7  22542752.234 7
 118462913.453 7  92308803.586 5
                  22542752.805 5        44.900          32.500

  24579970.516 5  24579982.750 5  24579982.301 6
 129168561.174 5                  96457091.158 6
                                        32.900                          39.200

 18 12  4  1  9 30.0000000  0 10G02G05G06G12G13G15G19G25G29G30
  21138155.594 8
 111081705.631 8  86557221.958 7
                  21138159.852 7        48.400          42.000

  21085205.453 8  21085211.918 7
 110803472.254 8  86340401.107 6
                  21085212.059 6        50.000          41.300

  23129859.555 6  23129870.215 6  23129869.754 7
 121548094.046 6  94712913.975 4  90766504.933 7
                  23129868.926 4        41.800          28.400          45.900

  24423714.563 6  24423724.289 6
 128347474.708 6 100010999.627 3
                  24423724.090 3        39.700          20.400

  20633099.453 8
 108427704.005 8  84489121.326 7
                  20633106.184 7        50.000          42.300

  22404606.789 7  22404614.184 7
 117737016.593 7  91743160.169 5
                  22404614.594 5        46.300          35.100

  24713253.398 5
 129868930.048 5 101196589.349 3
                  24713262.293 3        35.000          20.400

  25040560.422 6  25040572.418 6  25040571.043 6
 131588900.426 6 102536890.350 3  98264483.320 6
                  25040572.270 3        38.300          20.600          38.000

  22527839.461 7  22527846.563 7
 118384580.671 7  92247765.042 5
                  22527846.664 5        45.400          32.600

  24575924.234 5  24575935.508 5  24575934.207 6
 129147291.744 5 100634340.744 2  96441208.184 6
                  24575934.563 2        32.400          14.800          39.800

 18 12  4  1 10  0.0000000  0 10G02G05G06G12G13G15G19G25G29G30
  21136158.141 8
 111071208.643 8  86549042.468 7
                  21136162.156 7        48.700          42.000

  21090464.758 8  21090471.387 7
 110831109.899 8  86361936.921 6
                  21090471.492 6        49.000          41.100

  23139759.531 6  23139770.227 7  23139770.336 7
 121600119.305 6  94753453.069 4  90805354.894 7
                  23139770.246 4        41.400          29.600          45.400

  24436081.297 6  24436090.141 6
 128412458.194 6 100061635.995 3
                  24436089.848 3        37.400          20.600

  20623566.711 8
 108377608.740 8  84450086.053 7
                  20623573.180 7        50.300          42.300

  22386101.789 7  22386109.164 7
 117639771.171 7  91667384.545 5
                  22386109.484 5        46.200          34.800

  24734339.914 5
 129979737.680 5 101282932.741 3
                  24734348.074 3        34.800          19.300

  25049418.938 6  25049431.090 6  25049429.113 6
 131635449.672 6 102573162.379 3  98299243.957 6
                  25049430.457 3        37.700          20.900          37.600

  22513007.273 7  22513013.988 7
 118306635.289 7  92187028.381 5
                  22513014.031 5        45.800          32.600

  24571933.523 5  24571944.891 5  24571944.875 6
 129126324.707 5 100618002.807 2  96425550.985 6
                  24571944.426 2        33.900          16.300          41.400

 18 12  4  1 10 30.0000000  0 10G02G05G06G12G13G15G19G25G29G30
  21134210.313 8
 111060972.834 8  86541066.481 7
                  21134214.496 7        48.300          42.700

  21095748.359 8  21095755.168 7
 110858875.754 8  86383572.631 6
                  21095755.102 6        49.400          41.000

  23149707.492 6  23149718.352 7  23149718.016 7
 121652396.644 6  94794188.615 4  90844393.088 7
                  23149717.438 4        40.400          28.600          45.800

  24448434.047 6  24448443.410 6
 128477376.423 6 100112221.528 3
                  24448443.777 3        38.600          20.900

  20614133.734 8
 108328038.056 8  84411459.552 7
                  20614140.309 7        50.000          42.100

  22367652.500 7  22367660.105 7
 117542820.232 7  91591838.390 5
                  22367660.066 5        46.400          35.500

  24755435.227 5
 130090593.798 5 101369313.964 3
                  24755444.027 3        35.700          21.800

  25058302.070 6  25058313.230 6  25058312.934 6
 131682129.228 6 102609535.941 3  98334101.926 6
                  25058312.977 3        38.300          20.600          38.800

  22498248.734 7  22498255.305 7
 118229080.111 7  92126595.757 5
                  22498255.844 5        45.400          32.300

  24568001.992 5  24568012.738 6  24568012.402 6
 129105662.382 5 100601902.307 2  96410121.347 6
                  24568013.125 2        34.600          16.300          41.000

 18 12  4  1 11  0.0000000  0 10G02G05G06G12G13G15G19G25G29G30
  21132312.492 8
 111050999.235 8  86533294.818 7
                  21132316.594 7        48.600          42.800

  21101056.344 8  21101062.508 7
 110886768.091 8  86405306.897 6
                  21101062.684 6        49.300          40.900

  23159703.328 6  23159714.559 7  23159714.836 7
 121704926.085 6  94835120.551 4  90883619.538 7
                  23159714.250 4        39.900          28.800          45.400

  24460776.023 6  24460784.699 6
 128542226.196 6 100162753.687 3
                  24460784.969 3        39.800          21.700

  20604800.898 8
 108278993.526 8  84373243.043 7
                  20604807.598 7        49.600          42.500

  22349259.422 7  22349267.160 7
 117446166.029 7  91516523.451 5
                  22349267.383 5        46.300          34.900

  24776539.453 5
 130201495.429 5 101455730.614 3
                  24776548.520 3        35.800          20.900

  25067208.070 6  25067220.367 6  25067219.535 6
 131728935.992 6 102646008.682 3  98369054.903 6
                  25067220.078 3        36.500          20.400          39.200

  22483565.344 7  22483572.371 7
 118151917.320 7  92066468.894 5
                  22483572.645 5        45.800          33.800

  24564128.688 5  24564139.125 6  24564139.102 6
 129085306.558 5 100586040.599 2  96394920.575 6
                  24564139.137 2        34.300          15.600          41.700

 18 12  4  1 11 30.0000000  0 10G02G05G06G12G13G15G19G25G29G30
  21130464.883 8
 111041290.103 8  86525729.242 7
                  21130469.188 7        48.300          42.000

  21106387.727 8  21106394.078 7
 110914785.957 8  86427138.985 6
                  21106394.492 6        49.100          40.400

  23169746.953 6  23169758.559 7  23169758.742 7
 121757708.235 6  94876249.384 4  90923034.665 7
                  23169758.324 4        39.700          27.500          45.800

  24473103.094 6  24473112.664 6
 128607005.049 6 100213230.631 3
                  24473111.945 3        40.500          22.500

  20595568.414 8
 108230477.109 8  84335438.047 7
                  20595575.016 7        49.200          42.300

  22330924.031 7  22330931.488 7
 117349810.849 7  91441441.511 5
                  22330931.754 5        46.000          34.800

  24797651.773 5
 130312440.475 5 101542181.119 3
                  24797660.363 3        35.200          20.900

  25076140.305 6  25076151.043 5  25076151.930 6
 131775867.300 6 102682578.402 3  98404100.846 6
                  25076150.703 3        39.100          20.100          40.300

  22468956.938 7  22468963.488 7
 118075149.647 7  92006649.920 5
                  22468964.090 5        45.600          32.600

  24560313.570 5  24560324.074 6  24560324.359 6
 129065259.341 5 100570419.460 2  96379950.247 6
                  24560324.367 2        33.100          17.400          41.800

 18 12  4  1 12  0.0000000  0 10G02G05G06G12G13G15G19G25G29G30
  21128667.656 8
 111031847.085 8  86518371.025 7
                  21128672.160 7        48.200          42.400

  21111743.148 8  21111749.625 7
 110942927.556 8  86449067.478 6
                  21111749.793 6        49.100          40.900

  23179839.555 6  23179850.355 6  23179851.313 7
 121810743.197 6  94917575.257 4  90962638.580 7
                  23179850.203 4        39.800          27.700          45.900

  24485415.344 6  24485424.824 6
 128671709.917 6 100263649.919 3
                  24485425.391 3        38.900          21.800

  20586436.969 8
 108182490.198 8  84298045.659 7
                  20586443.270 7        48.900          43.500

  22312645.352 7  22312652.934 7
 117253756.865 7  91366594.274 5
                  22312653.133 5        46.200          35.300

  24818771.445 5
 130423425.963 5 101628663.152 3
                  24818780.348 3        35.300          21.100

  25085093.508 5  25085105.375 6  25085104.871 6
 131822920.096 5 102719242.830 2  98439237.606 6
                  25085104.383 2        35.600          17.800          40.400

  22454423.797 7  22454431.055 6
 117998779.507 7  91947140.684 5
                  22454431.098 5        46.200          32.300

  24556557.133 5  24556568.992 6  24556568.609 6
 129045522.475 5 100555040.116 2  96365211.732 6
                  24556568.895 2        34.300          17.400          41.600

 18 12  4  1 12 30.0000000  0 10G02G05G06G12G13G15G19G25G29G30
  21126921.703 8
 111022671.743 8  86511221.378 7
                  21126926.156 7        48.800          42.400

  21117121.711 8  21117128.211 7
 110971191.619 8  86471091.412 6
                  21117127.973 6        49.500          40.900

  23189981.063 6  23189991.637 7  23189990.887 7
 121864031.207 6  94959098.275 4  91002431.466 7
                  23189991.008 4        41.400          29.800          45.000

  24497713.680 6  24497723.449 6
 128736338.385 6 100314009.703 3
                  24497722.852 3        39.200          20.900

  20577405.945 8
 108135034.328 8  84261067.060 7
                  20577412.824 7        49.900          42.500

  22294424.602 7  22294432.332 7
 117158006.440 7  91291983.579 5
                  22294432.555 5        46.100          35.400

  24839899.164 5
 130534449.924 5 101715175.171 3
                  24839907.477 3        34.800          20.400

  25094069.898 6  25094081.449 5  25094081.137 6
 131870091.492 6 102755999.679 3  98474462.893 6
                  25094080.766 3        36.800          18.600          39.200

  22439967.813 7  22439973.844 7
 117922809.286 7  91887943.103 5
                  22439974.355 5        46.000          32.500

  24552860.977 5  24552872.961 6  24552872.145 6
 129026097.967 5 100539904.156 2  96350706.437 6
                  24552872.195 2        33.900          17.800          41.800

 18 12  4  1 13  0.0000000  0 10G02G05G06G12G13G15G19G25G29G30
  21125227.180 8
 111013766.812 8  86504282.444 7
                  21125231.602 7        48.600          42.600

  21122523.398 8  21122530.000 7
 110999577.744 8  86493210.449 6
                  21122529.938 6        49.300          41.100

  23200169.758 6  23200179.711 6  23200180.289 7
 121917573.657 6  95000819.579 4  91042414.353 7
                  23200178.875 4        41.100          28.600          45.200

  24509997.070 6  24510006.520 6
 128800888.499 6 100364308.392 3
                  24510007.203 3        38.400          19.600

  20568476.898 8
 108088112.075 8  84224504.276 7
                  20568484.082 7        49.800          42.300

  22276262.023 7  22276270.438 7
 117062562.858 7  91217611.966 5
                  22276270.094 5        46.300          35.500

  24861033.039 5
 130645510.317 5 101801715.596 3
                  24861041.559 3        34.600          19.600

  25103068.211 5  25103080.199 6  25103079.852 6
 131917379.701 5 102792847.521 2  98509775.402 6
                  25103080.254 2        34.500          17.400          39.200

  22425587.516 7  22425594.273 7
 117847242.584 7  91829059.934 5
                  22425594.789 5        45.800          31.800

  24549225.086 5  24549235.875 6  24549235.824 7
 129006988.731 5 100525013.862 3  96336436.586 7
                  24549235.941 3        34.300          19.900          43.000

 18 12  4  1 13 30.0000000  0 10G02G05G06G12G13G15G19G25G29G30
  21123584.109 8
 111005133.868 8  86497555.450 7
                  21123588.676 7        48.500          42.200

  21127947.758 8  21127954.363 7
 111028084.179 8  86515423.221 6
                  21127954.754 6        49.600          40.900

  23210407.375 6  23210416.824 6  23210416.262 7
 121971370.620 6  95042739.219 4  91082587.309 7
                  23210416.891 4        41.600          28.900          44.200

  24522265.898 6  24522274.680 5
 128865357.431 6 100414543.835 3
                  24522273.949 3        39.700          19.600

  20559650.023 8
 108041724.869 8  84188358.403 7
                  20559656.848 7        50.200          42.600

  22258158.969 7  22258166.414 7
 116967428.358 7  91143481.192 5
                  22258166.680 5        46.200          35.400

  24882173.500 5
 130756604.483 5 101888282.245 3
                  24882181.711 3        33.400          18.300

  25112088.563 6  25112100.805 5  25112101.395 6
 131964781.707 6 102829784.081 3  98545172.936 6
                  25112100.641 3        36.900          19.300          40.200

  22411285.117 7  22411291.973 7
 117772081.555 7  91770492.896 5
                  22411291.711 5        46.000          32.400

  24545648.344 5  24545659.898 6  24545659.883 7
 128988196.585 5 100510370.624 3  96322403.481 7
                  24545660.141 3        34.500          19.000          42.500

 18 12  4  1 14  0.0000000  0 10G02G05G06G12G13G15G19G25G29G30
  21121994.078 8
 110996775.515 8  86491042.416 6
                  21121998.496 6        49.800          41.700

  21133395.297 8  21133401.809 7
 111056710.261 8  86537729.240 6
                  21133401.918 6        49.500          41.000

  23220692.297 6  23220703.551 7  23220702.758 7
 122025423.081 6  95084857.929 4  91122951.052 7
                  23220702.816 4        40.200          27.800          44.600

  24534518.234 6  24534527.258 6
 128929743.258 6 100464714.505 3
                  24534527.621 3        39.900          21.100

  20550925.148 8
 107995875.207 8  84152631.400 7
                  20550931.840 7        50.000          42.700

  22240114.508 7  22240122.383 7
 116872605.593 7  91069593.348 6
                  22240122.598 6        46.200          36.000

  24903320.711 5
 130867730.935 5 101974874.140 3
                  24903329.145 3        33.100          18.300

  25121130.727 6  25121142.457 6  25121142.410 6
 132012295.450 6 102866807.637 3  98580653.846 6
                  25121142.902 3        36.400          20.100          40.200

  22397060.125 7  22397067.184 6
 117697329.705 7  91712244.690 5
                  22397067.238 5        45.800          31.900

  24542133.938 5  24542145.457 6  24542144.504 7
 128969724.103 5 100495976.510 3  96308609.119 7
                  24542145.145 3        35.700          20.600          42.700

 18 12  4  1 14 30.0000000  0 10G02G05G06G12G13G15G19G25G29G30
  21120455.891 8
 110988692.389 8  86484743.840 7
                  21120460.031 7        49.300          42.600

  21138864.953 8  21138871.531 7
 111085453.515 8  86560126.565 6
                  21138871.477 6        49.600          41.100

  23231027.016 6  23231038.012 7  23231038.105 7
 122079730.206 6  95127175.057 4  91163504.960 7
                  23231037.762 4        39.900          28.600          44.700

  24546753.383 6  24546762.410 6
 128994042.019 6 100514817.334 3
                  24546762.996 3        39.800          20.600

  20542302.461 8
 107950563.089 8  84117323.261 7
                  20542309.238 7        49.800          43.500

  22222130.352 7  22222137.715 7
 116778095.998 7  90995949.510 5
                  22222137.715 5        46.000          35.400

  24924473.016 5
 130978886.025 5 102061488.319 2
                  24924481.676 2        34.500          16.900

  25130193.453 6  25130205.227 5  25130205.023 6
 132059916.857 6 102903915.195 3  98616215.144 6
                  25130204.219 3        38.200          19.900          41.500

  22382913.125 7  22382920.168 6
 117622987.988 7  91654316.060 5
                  22382920.059 5        45.400          32.800

  24538679.453 6  24538690.895 6  24538690.402 7
 128951572.077 6 100481832.102 3  96295054.057 7
                  24538690.512 3        37.000          20.400          43.400

 18 12  4  1 15  0.0000000  0 10G02G05G06G12G13G15G19G25G29G30
  21118970.297 8
 110980885.652 8  86478660.640 6
                  21118974.570 6        49.600          41.900

  21144356.758 8  21144362.984 7
 111114312.202 8  86582613.836 6
                  21144363.262 6        49.600          40.800

  23241409.297 6  23241420.344 7  23241420.992 7
 122134291.804 6  95169690.489 4  91204248.906 7
                  23241420.652 4        39.800          29.300          45.500

  24558973.156 6  24558980.738 6
 129058250.578 6 100564849.901 3
                  24558981.520 3        39.600          21.300

  20533782.336 8
 107905789.864 8  84082435.038 7
                  20533789.234 7        50.300          43.200

  22204205.359 7  22204212.957 7
 116683901.290 7  90922551.051 5
                  22204212.941 5        45.800          35.900

  24945629.594 5
 131090066.988 5 102148122.670 2
                  24945639.223 2        32.400          16.900

  25139274.609 5  25139286.414 6  25139286.957 6
 132107642.608 5 102941104.048 3  98651854.456 6
                  25139286.629 3        34.700          18.600          41.300

  22368845.031 7  22368851.832 6
 117549058.576 7  91596708.723 5
                  22368851.574 5        45.000          31.500

  24535287.438 6  24535298.406 6  24535297.453 7
 128933742.005 6 100467938.523 3  96281739.405 7
                  24535297.410 3        37.300          22.000          44.200

 18 12  4  1 15 30.0000000  0 10G02G05G06G12G13G15G19G25G29G30
  21117537.750 8
 110973357.288 8  86472794.354 7
                  21117542.387 7        49.500          42.100

  21149869.984 8  21149876.758 7
 111143285.268 8  86605190.222 6
                  21149876.730 6        49.800          41.200

  23251840.641 6  23251852.965 7  23251852.117 7
 122189108.280 6  95212404.500 4  91245183.147 7
                  23251852.805 4        40.000          29.800          45.700

  24571173.422 6  24571182.887 6
 129122366.348 6 100614810.134 3
                  24571182.676 3        38.400          21.100

  20525365.195 8
 107861556.901 8  84047967.794 7
                  20525372.008 7        49.900          43.500

  22186341.250 7  22186348.926 7
 116590023.929 7  90849399.876 6
                  22186348.988 6        46.400          36.500

  24966790.891 5
 131201270.980 5 102234774.929 2
                  24966801.113 2        32.200          16.300

  25148375.695 5  25148388.168 6  25148387.324 6
 132155470.123 5 102978372.126 3  98687569.677 6
                  25148387.566 3        35.900          18.600          39.700

  22354855.648 7  22354862.699 6
 117475543.977 7  91539424.591 5
                  22354862.453 5        46.100          31.800

  24531955.047 5  24531966.539 6  24531966.164 7
 128916235.916 5 100454297.421 3  96268666.657 7
                  24531966.238 3        35.600          21.700          44.900

 18 12  4  1 16  0.0000000  0 10G02G05G06G12G13G15G19G25G29G30
  21116158.641 7
 110966109.540 7  86467146.730 7
                  21116163.012 7        47.900          42.000

  21155405.094 8  21155411.613 7
 111172371.608 8  86627854.884 6
                  21155411.789 6        49.600          41.300

  23262320.172 6  23262332.180 7  23262332.023 7
 122244180.288 6  95255317.637 4  91286308.215 7
                  23262332.363 4        38.900          26.500          45.500

  24583356.055 6  24583365.316 6
 129186387.190 6 100664696.402 3
                  24583366.254 3        39.800          21.700

  20517050.898 8
 107817866.329 8  84013923.195 7
                  20517057.813 7        49.600          42.600

  22168537.711 7  22168545.465 7
 116496466.769 7  90776498.202 6
                  22168545.238 6        46.800          36.300

  24987956.609 5
 131312496.564 5 102321444.110 2
                  24987966.148 2        32.200          13.900

  25157494.625 5  25157509.410 6  25157509.020 6
 132203396.933 5 103015717.631 2  98723359.125 6
                  25157508.602 2        33.100          16.300          40.100

  22340945.789 7  22340952.555 6
 117402446.869 7  91482465.798 5
                  22340952.996 5        46.100          33.100

  24528685.930 6  24528697.008 6  24528696.785 7
 128899056.061 6 100440910.556 3  96255837.613 7
                  24528696.555 3        36.300          21.500          45.000

 18 12  4  1 16 30.0000000  0 10G02G05G06G12G13G15G19G25G29G30
  21114833.023 8
 110959143.791 8  86461718.850 7
                  21114837.477 7        49.400          42.300

  21160961.563 8  21160967.652 7
 111201569.794 8  86650606.701 6
                  21160968.297 6        49.600          40.900

  23272849.492 6  23272860.547 7  23272861.281 7
 122299508.015 6  95298430.039 4  91327624.247 7
                  23272860.137 4        38.900          26.400          46.000

  24595520.688 6  24595530.168 6
 129250310.390 6 100714506.581 3
                  24595529.957 3        39.400          22.200

  20508840.367 8
 107774719.616 8  83980302.382 7
                  20508847.172 7        50.300          42.700

  22150795.633 7  22150803.672 7
 116403231.881 7  90703847.666 6
                  22150803.480 6        46.300          36.200

  25009126.594 5
 131423740.789 5 102408127.794 2
                  25009134.836 2        32.000          14.800

  25166635.461 5  25166647.277 5  25166646.852 6
 132251420.126 5 103053138.219 3  98759220.541 6
                  25166646.664 3        35.000          18.300          39.800

  22327115.922 7  22327122.191 6
 117329769.866 7  91425834.350 5
                  22327122.355 5        46.600          33.100

  24525479.156 6  24525490.344 6  24525490.023 7
 128882204.290 6 100427779.331 3  96243253.526 7
                  24525490.109 3        36.400          21.100          44.000

 18 12  4  1 17  0.0000000  0 10G02G05G06G12G13G15G19G25G29G30
  21113561.648 8
 110952462.146 8  86456512.350 7
                  21113566.090 7        48.600          42.200

  21166538.586 8  21166544.863 7
 111230878.684 8  86673444.786 6
                  21166545.418 6        49.600          40.900

  23283427.242 6  23283437.797 7  23283438.348 7
 122355091.907 6  95341742.079 4  91369131.544 7
                  23283437.441 4        39.900          27.600          45.200

  24607665.633 6  24607674.801 6
 129314133.423 6 100764238.724 3
                  24607675.254 3        39.600          22.500

  20500733.570 8
 107732118.205 8  83947106.491 7
                  20500740.504 7        50.500          43.600

  22133115.828 7  22133123.145 7
 116310321.648 7  90631450.094 6
                  22133123.281 6        47.000          36.400

  25030296.984 5
 131535001.814 5 102494824.532 2
                  25030308.523 2        30.100          13.900

  25175791.406 5  25175802.980 5  25175802.406 6
 132299537.155 5 103090631.928 2  98795151.977 6
                  25175802.555 2        35.200          16.300          39.200

  22313366.352 7  22313373.156 7
 117257515.427 7  91369532.180 5
                  22313373.004 5        45.900          32.800

  24522335.414 5  24522346.570 6  24522345.898 7
 128865682.590 5 100414905.288 3  96230915.877 7
                  24522345.914 3        35.800          22.000          44.600

 18 12  4  1 17 30.0000000  0 10G02G05G06G12G13G15G19G25G29G30
  21112344.219 8
 110946066.673 8  86451528.831 7
                  21112349.074 7        48.800          42.200

  21172136.727 8  21172143.203 7
 111260297.109 8  86696368.214 6
                  21172143.293 6        49.700          41.000

  23294053.500 6  23294064.363 7  23294064.598 7
 122410932.310 6  95385254.013 4  91410830.466 7
                  23294063.918 4        39.800          28.300          45.500

  24619791.398 6  24619800.758 6
 129377853.832 6 100813890.858 3
                  24619800.457 3        38.900          21.100

  20492731.234 8
 107690063.708 8  83914336.747 7
                  20492737.844 7        50.300          43.300

  22115497.422 7  22115505.125 7
 116217738.572 7  90559307.457 6
                  22115505.371 6        46.500          36.600

  25051472.547 4
 131646277.045 4 102581532.399 2
                  25051483.203 2        28.600          14.800

  25184964.484 6  25184977.543 5  25184977.668 6
 132347745.275 6 103128196.600 3  98831151.427 6
                  25184976.953 3        37.800          19.000          40.400

  22299698.063 7  22299704.422 6
 117185686.011 7  91313561.179 5
                  22299704.316 5        47.000          32.700

  24519253.984 6  24519265.699 6  24519265.043 7
 128849493.021 6 100402290.028 3  96218826.261 7
                  24519265.508 3        38.100          22.800          44.300

 18 12  4  1 18  0.0000000  0 10G02G05G06G12G13G15G19G25G29G30
  21111182.242 8
 110939958.808 8  86446769.425 6
                  21111186.629 6        48.400          41.600

  21177755.344 8  21177761.895 7
 111289823.315 8  86719375.629 6
                  21177761.879 6        49.200          40.500

  23304728.320 6  23304739.387 7  23304739.828 7
 122467029.171 6  95428965.746 4  91452720.882 7
                  23304738.727 4        40.000          28.500          45.200

  24631897.547 6  24631906.316 6
 129441468.864 6 100863460.935 3
                  24631905.969 3        38.300          21.700

  20484832.492 8
 107648557.120 8  83881993.957 7
                  20484839.539 7        50.600          43.500

  22097942.156 7  22097950.066 7
 116125484.596 7  90487421.258 6
                  22097950.090 6        47.100          36.200

  25072650.477 4
 131757563.842 4 102668249.248 2
                  25072660.465 2        26.800          13.900

  25194155.766 6  25194167.523 6  25194167.910 6
 132396041.382 6 103165829.872 3  98867216.636 6
                  25194167.871 3        37.900          18.600          40.100

  22286110.117 7  22286117.055 6
 117114284.005 7  91257923.241 5
                  22286117.023 5        45.700          32.600

  24516237.406 6  24516248.027 6  24516247.363 7
 128833637.106 6 100389934.785 3  96206985.840 7
                  24516248.527 3        37.500          21.300          43.900

 18 12  4  1 18 30.0000000  0  9G02G05G06G12G13G15G25G29G30
  21110075.094 8
 110934139.766 8  86442235.076 7
                  21110079.719 7        48.700          42.500

  21183394.344 8  21183401.055 7
 111319456.391 8  86742466.302 6
                  21183401.203 6        49.300          40.400

  23315451.461 6  23315462.871 7  23315462.984 7
 122523382.795 6  95472877.582 4  91494803.014 7
                  23315462.688 4        37.900          27.300          44.800

  24643981.867 6  24643991.648 6
 129504975.888 6 100912946.837 3
                  24643991.230 3        38.700          22.900

  20477038.891 8
 107607600.020 8  83850079.343 7
                  20477045.547 7        50.000          43.100

  22080449.789 7  22080457.773 7
 116033562.146 7  90415793.402 6
                  22080457.496 6        47.000          36.500

  25203362.383 6  25203374.969 6  25203374.000 6
 132444422.772 6 103203529.614 3  98903345.528 6
                  25203373.656 3        37.300          19.600          39.900

  22272605.242 7  22272611.430 7
 117043311.980 7  91202620.340 5
                  22272611.754 5        46.800          33.100

  24513282.930 6  24513294.828 6  24513294.180 7
 128818116.808 6 100377841.047 3  96195396.006 7
                  24513294.773 3        36.300          22.900          44.400

 18 12  4  1 19  0.0000000  0  9G02G05G06G12G13G15G25G29G30
  21109023.180 8
 110928613.009 8  86437928.479 7
                  21109027.957 7        49.100          42.000

  21189053.656 8  21189060.055 7
 111349196.280 8  86765640.224 6
                  21189060.180 6        50.000          41.400

  23326223.766 6  23326236.102 7  23326235.887 7
 122579994.616 6  95516990.599 4  91537077.973 7
                  23326235.926 4        37.900          27.600          44.400

  24656046.320 6  24656055.434 6
 129568373.355 6 100962347.344 3
                  24656055.152 3        38.800          21.500

  20469349.797 8
 107567195.015 8  83818594.935 7
                  20469356.660 7        50.600          43.900

  22063021.203 7  22063029.051 7
 115941974.586 7  90344426.499 6
                  22063029.137 6        47.300          36.700

  25212585.539 6  25212597.855 5  25212597.895 6
 132492887.873 6 103241294.526 2  98939536.942 6
                  25212595.957 2        36.100          16.900          40.400

  22259181.578 7  22259188.660 6
 116972773.196 7  91147655.035 5
                  22259188.645 5        47.300          32.400

  24510394.336 6  24510406.039 6  24510404.832 7
 128802935.099 6 100366011.183 3  96184059.060 7
                  24510405.957 3        38.100          22.600          43.500

 18 12  4  1 19 30.0000000  0  9G02G05G06G12G13G15G25G29G30
  21108027.375 8
 110923379.770 8  86433850.607 6
                  21108032.117 6        49.500          41.800

  21194733.070 8  21194739.504 7
 111379041.215 8  86788896.004 6
                  21194739.563 6        49.900          40.600

  23337046.578 6  23337058.457 7  23337056.996 7
 122636864.165 6  95561304.437 4  91579545.407 7
                  23337057.566 4        38.100          25.800          43.500

  24668089.031 6  24668098.496 6
 129631658.363 6 101011660.285 3
                  24668098.824 3        39.600          21.700

  20461766.008 8
 107527342.712 8  83787541.193 7
                  20461773.160 7        50.000          44.000

  22045656.930 7  22045664.238 7
 115850723.589 7  90273321.862 6
                  22045664.605 6        47.200          37.300

  25221824.125 6  25221834.246 5  25221835.191 6
 132541433.240 6 103279122.130 2  98975788.321 6
                  25221833.867 2        37.300          16.300          40.800

  22245842.078 7  22245848.012 6
 116902669.299 7  91093028.629 5
                  22245848.531 5        47.300          33.700

  24507570.898 6  24507581.527 6  24507580.438 7
 128788093.215 6 100354446.081 3  96172975.846 7
                  24507581.219 3        38.000          23.600          42.600

 18 12  4  1 20  0.0000000  0  9G02G05G06G12G13G15G25G29G30
  21107087.789 7
 110918441.139 7  86430002.291 7
                  21107092.316 7        47.900          42.000

  21200431.852 8  21200438.578 7
 111408988.938 8  86812231.869 6
                  21200438.273 6        50.000          41.300

  23347917.125 6  23347929.129 7  23347928.809 7
 122693991.011 6  95605818.748 4  91622204.958 7
                  23347929.578 4        38.300          27.400          44.700

  24680109.070 6  24680119.512 6
 129694827.541 6 101060882.942 3
                  24680119.000 3        38.200          22.300

  20454288.016 8
 107488043.746 8  83756918.627 7
                  20454294.746 7        48.800          43.300

  22028356.727 7  22028364.281 7
 115759810.669 7  90202480.646 6
                  22028364.625 6        47.700          37.100

  25231075.563 6  25231087.438 5  25231087.363 6
 132590055.458 6 103317009.474 3  99012096.997 6
                  25231087.363 3        37.400          18.300          40.100

  22232584.047 7  22232591.121 7
 116833002.470 7  91038742.753 5
                  22232591.105 5        46.200          32.900

  24504810.805 6  24504821.754 6  24504821.461 7
 128773592.291 6 100343146.671 4  96162147.246 7
                  24504821.625 4        39.000          24.100          43.100

 18 12  4  1 20 30.0000000  0  9G02G05G06G12G13G15G25G29G30
  21106204.211 7
 110913798.086 7  86426384.286 6
                  21106208.668 6        47.900          41.700

  21206150.055 8  21206156.684 7
 111439037.951 8  86835646.685 6
                  21206156.863 6        49.700          40.900

  23358836.953 6  23358849.344 7  23358849.301 7
 122751375.155 6  95650533.560 4  91665056.667 7
                  23358849.293 4        38.400          26.400          45.300

  24692108.250 6  24692118.094 6
 129757877.935 6 101110012.977 3
                  24692117.727 3        38.500          21.700

  20446915.070 8
 107449299.459 8  83726728.283 7
                  20446921.969 7        49.000          43.600

  22011121.320 7  22011128.980 7
 115669237.756 7  90131904.374 6
                  22011129.020 6        47.300          37.200

  25240342.781 6  25240354.172 5  25240354.109 6
 132638751.561 6 103354954.455 2  99048460.898 6
                  25240353.828 2        36.200          17.800          40.400

  22219410.828 7  22219417.309 7
 116763774.838 7  90984799.132 5
                  22219417.391 5        46.000          32.900

  24502117.492 6  24502127.918 6  24502126.797 7
 128759434.045 6 100332114.254 3  96151574.522 7
                  24502128.027 3        36.800          22.500          42.100

 18 12  4  1 21  0.0000000  0  9G02G05G06G12G13G15G25G29G30
  21105377.563 8
 110909453.647 8  86422998.973 6
                  21105382.086 6        48.000          41.800

  21211887.680 8  21211894.402 7
 111469188.105 8  86859140.300 6
                  21211893.992 6        49.600          41.200

  23369806.023 6  23369817.895 6  23369818.023 7
 122809017.651 6  95695449.683 4  91708101.207 7
                  23369818.172 4        39.900          27.700          44.900

  24704083.523 6  24704092.621 6
 129820808.183 6 101159049.443 3
                  24704092.789 3        38.900          21.500

  20439648.500 8
 107411111.913 8  83696971.760 7
                  20439655.039 7        49.300          43.200

  21993950.922 8  21993958.586 7
 115579007.935 8  90061595.460 6
                  21993958.773 6        48.200          37.500

  25249621.266 5  25249633.879 5  25249634.055 6
 132687519.591 5 103392955.413 2  99084878.469 6
                  25249633.742 2        34.300          17.400          39.000

  22206320.992 7  22206328.406 7
 116694989.399 7  90931200.059 5
                  22206327.691 5        46.200          32.800

  24499488.070 6  24499499.523 6  24499498.461 7
 128745620.964 6 100321350.845 3  96141259.572 7
                  24499499.324 3        39.000          22.300          42.100

 18 12  4  1 21 30.0000000  0 10G02G05G06G12G13G15G24G25G29G30
  21104608.000 8
 110905409.260 8  86419847.477 6
                  21104612.434 6        48.400          41.700

  21217643.695 8  21217650.516 7
 111499437.831 8  86882711.495 6
                  21217650.066 6        49.900          41.100

  23380824.195 6  23380835.969 6  23380835.977 7
 122866918.260 6  95740566.941 4  91751338.594 7
                  23380836.012 4        39.200          27.300          45.300

  24716035.047 6  24716045.266 6
 129883615.554 6 101207990.139 3
                  24716044.715 3        39.400          22.600

  20432487.391 8
 107373482.005 8  83667649.764 7
                  20432494.344 7        49.000          43.400

  21976846.688 7  21976854.332 7
 115489123.284 7  89991555.513 6
                  21976854.063 6        47.600          37.100

  25825290.617 5  25825304.098 6  25825303.648 6
 135712823.039 5 105750300.959 3 101343982.120 6
                  25825304.016 3        34.800          18.300          39.100

  25258916.070 5  25258928.699 5  25258927.449 6
 132736356.437 5 103431010.026 3  99121347.455 6
                  25258927.527 3        35.400          19.000          39.900

  22193316.617 7  22193322.844 7
 116626648.120 7  90877947.097 5
                  22193323.785 5        45.900          33.200

  24496925.781 6  24496937.277 6  24496935.980 7
 128732154.551 6 100310857.532 3  96131203.498 7
                  24496936.738 3        38.400          22.000          42.800

 18 12  4  1 22  0.0000000  0  9G02G05G06G12G13G15G25G29G30
  21103895.516 7
 110901666.586 7  86416931.072 7
                  21103900.398 7        47.900          42.100

  21223419.008 8  21223425.590 7
 111529785.967 8  86906359.373 6
                  21223425.156 6        49.900          40.600

  23391891.844 6  23391903.051 6  23391903.473 7
 122925077.328 6  95785885.609 4  91794768.938 7
                  23391903.035 4        38.600          26.000          45.300

  24727963.500 6  24727973.246 6
 129946297.232 6 101256832.916 3
                  24727973.074 3        38.200          21.500

  20425433.055 8
 107336410.986 8  83638763.267 7
                  20425440.070 7        48.500          43.400

  21959808.047 7  21959815.520 7
 115399585.884 7  89921786.132 6
                  21959815.496 6        47.800          37.100

  25268221.500 6  25268233.402 5  25268234.230 6
 132785259.423 6 103469116.110 2  99157865.833 6
                  25268232.387 2        36.800          16.900          41.800

  22180396.359 7  22180403.121 7
 116558753.299 7  90825042.030 5
                  22180403.469 5        45.000          32.900

  24494429.430 6  24494441.336 6  24494439.570 7
 128719036.652 6 100300635.774 3  96121407.647 7
                  24494441.129 3        38.600          22.300          42.500

 18 12  4  1 22 30.0000000  0  9G02G05G06G12G13G15G25G29G30
  21103241.234 7
 110898227.010 7  86414250.863 6
                  21103245.613 6        47.800          41.600

  21229212.367 8  21229218.707 7
 111560230.991 8  86930082.739 6
                  21229219.340 6        49.400          41.100

  23403008.211 6  23403019.777 6  23403020.324 7
 122983494.666 6  95831405.555 4  91838392.164 7
                  23403019.730 4        39.200          26.800          45.500

  24739866.680 6  24739875.996 6
 130008850.649 6 101305575.690 3
                  24739876.203 3        37.500          20.600

  20418485.070 8
 107299899.715 8  83610312.932 7
                  20418492.027 7        50.000          43.500

  21942835.891 7  21942843.387 7
 115310397.764 7  89852288.942 6
                  21942843.840 6        47.800          37.700

  25277540.438 6  25277552.063 5  25277552.453 6
 132834225.455 6 103507271.423 3  99194431.266 6
                  25277551.730 3        38.600          19.300          41.500

  22167562.234 7  22167568.973 7
 116491307.268 7  90772486.687 5
                  22167569.320 5        45.700          33.500

  24491999.875 6  24492011.063 6  24492009.887 6
 128706268.745 6 100290686.735 3  96111873.141 6
                  24492011.129 3        39.100          22.200          41.900

 18 12  4  1 23  0.0000000  0  9G02G05G06G12G13G15G25G29G30
  21102644.266 8
 110895092.369 8  86411808.245 6
                  21102649.148 6        48.000          41.800

  21235024.000 8  21235030.715 7
 111590771.753 8  86953880.707 6
                  21235031.035 6        49.900          41.600

  23414174.539 6  23414186.262 7  23414185.305 7
 123042170.410 6  95877126.844 4  91882208.405 7
                  23414185.629 4        38.600          26.500          44.500

  24751745.320 6  24751755.445 6
 130071273.391 6 101354216.664 3
                  24751754.980 3        39.100          20.600

  20411644.234 8
 107263949.471 8  83582299.760 7
                  20411650.883 7        48.500          43.300

  21925930.930 7  21925938.891 7
 115221561.283 7  89783065.737 6
                  21925938.672 6        47.600          36.600

  25286868.852 5  25286881.762 5  25286880.895 6
 132883251.764 5 103545473.697 3  99231041.781 6
                  25286881.281 3        35.500          18.600          40.400

  22154813.141 7  22154820.215 7
 116424312.472 7  90720282.928 5
                  22154820.445 5        45.400          33.000

  24489637.195 6  24489648.563 6  24489647.340 7
 128693852.581 6 100281011.785 3  96102601.316 7
                  24489648.734 3        38.200          22.800          42.300

 18 12  4  1 23 30.0000000  0 10G02G05G06G12G13G15G24G25G29G30
  21102106.938 8
 110892264.236 8  86409604.475 6
                  21102111.289 6        48.000          41.800

  21240853.844 8  21240860.465 7
 111621407.166 8  86977752.449 6
                  21240860.820 6        49.700          41.800

  23425389.203 6  23425401.168 7  23425400.793 7
 123101104.842 6  95923049.692 4  91926217.797 7
                  23425401.082 4        38.000          26.900          44.400

  24763598.109 6  24763608.406 6
 130133562.947 6 101402753.893 3
                  24763608.543 3        38.500          20.100

  20404909.984 8
 107228561.407 8  83554724.657 7
                  20404916.813 7        48.600          43.500

  21909093.000 7  21909100.547 7
 115133078.349 7  89714118.038 6
                  21909100.539 6        47.800          37.100

  25767636.992 5  25767650.238 5  25767652.410 6
 135409803.390 5                 101117739.236 6
                                        30.100                          40.800

  25296210.453 6  25296221.379 5  25296222.855 6
 132932335.728 6 103583720.823 3  99267695.295 6
                  25296221.695 3        38.400          18.600          40.600

  22142151.336 7  22142157.359 7
 116357770.894 7  90668432.341 5
                  22142157.699 5        46.400          33.800

  24487341.813 6  24487352.688 6  24487351.855 7
 128681789.885 6 100271612.246 3  96093593.441 7
                  24487352.582 3        40.300          23.600          42.300

 18 12  4  1 24  0.0000000  0 10G02G05G06G12G13G15G24G25G29G30
  21101626.930 7
 110889745.029 7  86407641.416 6
                  21101631.746 6        47.800          41.700

  21246701.180 8  21246707.988 7
 111652135.849 8  87001696.875 6
                  21246707.996 6        50.000          41.200

  23436652.977 6  23436665.094 7  23436665.031 7
 123160298.182 6  95969174.294 4  91970420.512 7
                  23436664.875 4        38.700          27.000          44.100

  24775425.906 6  24775436.180 6
 130195717.079 6 101451185.604 3
                  24775436.844 3        38.800          20.900

  20398282.953 8
 107193736.642 8  83527588.487 7
                  20398289.836 7        48.800          43.700

  21892323.078 8  21892330.988 7
 115044951.487 8  89645447.789 6
                  21892330.809 6        48.000          37.200

  25753084.453 5                  25753099.012 5
                                 101060624.363 5
                                        31.500                          32.600

  25305560.945 6  25305573.820 6  25305571.871 6
 132981474.656 6 103622010.851 3  99304389.896 6
                  25305572.992 3        38.900          19.900          39.400

  22129574.656 7  22129582.273 7
 116291684.733 7  90616936.624 5
                  22129582.277 5        45.500          33.500

  24485113.547 6  24485124.574 6  24485123.918 7
 128670082.632 6 100262489.705 3  96084850.996 7
                  24485125.156 3        39.500          23.200          43.200

 18 12  4  1 24 30.0000000  0 10G02G05G06G12G13G15G24G25G29G30
  21101206.773 7
 110887535.900 7  86405919.981 7
                  21101211.355 7        47.800          42.100

  21252566.648 8  21252573.090 7
 111682957.149 8  87025713.463 6
                  21252573.094 6        49.800          41.200

  23447967.047 6  23447978.738 7  23447978.586 7
 123219750.529 6  96015500.722 4  92014816.678 7
                  23447978.617 4        39.600          27.800          44.100

  24787227.305 6  24787237.258 6
 130257733.214 6 101499509.772 3
                  24787237.938 3        37.500          20.600

  20391763.305 8
 107159476.689 8  83500892.433 7
                  20391770.277 7        48.700          43.700

  21875621.688 8  21875628.977 7
 114957182.802 8  89577056.643 6
                  21875628.941 6        48.000          36.900

  25738473.344 5  25738486.547 5
 135256541.791 5
                                        31.800

  25314920.367 6  25314932.836 5  25314933.930 6
 133030665.985 6 103660341.666 3  99341123.566 6
                  25314932.746 3        37.400          18.600          40.500

  22117086.039 7  22117093.574 7
 116226056.963 7  90565798.087 5
                  22117093.215 5        45.700          33.100

  24482954.180 6  24482964.586 6  24482964.559 7
 128658732.460 6 100253645.408 3  96076375.233 7
                  24482964.766 3        38.500          22.200          42.900

 18 12  4  1 25  0.0000000  0  9G02G05G06G12G13G15G25G29G30
  21100845.914 7
 110885638.710 7  86404441.619 7
                  21100850.492 7        47.800          42.600

  21258448.750 8  21258455.348 7
 111713870.103 8  87049801.454 6
                  21258455.555 6        49.500          40.200

  23459329.414 6  23459341.613 7  23459341.113 7
 123279462.271 6  96062029.297 4  92059406.528 7
                  23459341.266 4        38.300          27.100          43.900

  24799002.242 6  24799011.516 5
 130319608.994 6 101547724.549 3
                  24799011.508 3        37.400          18.300

  20385351.914 8
 107125782.613 8  83474637.324 7
                  20385358.602 7        48.600          43.200

  21858988.023 8  21858995.504 7
 114869774.703 8  89508946.488 6
                  21858995.652 6        48.200          36.700

  25324291.266 6  25324303.555 5  25324303.508 6
 133079907.032 6 103698711.249 2  99377894.421 6
                  25324303.488 2        37.700          17.400          39.700

  22104685.422 7  22104692.551 7
 116160889.722 7  90515018.400 5
                  22104692.496 5        46.000          34.000

  24480861.883 6  24480873.664 6  24480873.004 7
 128647741.368 6 100245080.937 3  96068167.572 7
                  24480873.137 3        39.500          22.000          43.800

 18 12  4  1 25 30.0000000  0 10G02G05G06G12G13G15G24G25G29G30
  21100544.414 7
 110884055.466 7  86403207.893 6
                  21100549.086 6        47.800          41.600

  21264348.828 8  21264355.301 7
 111744873.591 8  87073959.992 6
                  21264355.305 6        49.300          40.500

  23470741.109 6  23470753.922 7  23470753.789 7
 123339433.454 6  96108759.994 4  92104190.127 7
                  23470753.773 4        37.800          26.500          44.100

  24810750.273 6  24810759.059 5
 130381342.331 6 101595828.368 3
                  24810759.113 3        37.200          19.000

  20379047.875 8
 107092655.468 8  83448823.964 7
                  20379054.734 7        48.400          43.200

  21842423.688 7  21842431.410 7
 114782729.447 7  89441119.048 6
                  21842431.523 6        47.900          37.100

  25709086.203 5  25709099.809 6  25709099.980 6
 135102091.928 5 105274464.570 3 100887963.316 6
                  25709099.816 3        31.200          18.300          41.000

  25333670.992 6  25333682.891 5  25333683.563 6
 133129195.178 6 103737117.555 3  99414700.385 6
                  25333682.559 3        37.000          18.300          41.100

  22092372.617 7  22092379.715 7
 116096185.135 7  90464599.230 5
                  22092379.922 5        45.700          33.900

  24478839.531 6  24478849.926 6  24478850.273 7
 128637110.964 6 100236797.519 3  96060229.276 7
                  24478850.207 3        39.700          21.800          43.200

 18 12  4  1 26  0.0000000  0 10G02G05G06G12G13G15G24G25G29G30
  21100303.500 7
 110882787.120 7  86402219.540 6
                  21100307.902 6        47.600          41.800

  21270265.094 8  21270272.074 7
 111775965.540 8  87098187.481 6
                  21270272.254 6        49.900          40.500

  23482203.688 6  23482215.086 7  23482215.699 7
 123399663.530 6  96155692.401 4  92149167.020 7
                  23482215.086 4        39.000          27.000          44.400

  24822468.844 6  24822479.051 5
 130442929.883 6 101643818.578 3
                  24822479.313 3        36.900          19.000

  20372852.258 8
 107060095.835 8  83423452.830 7
                  20372858.762 7        48.700          43.600

  21825928.938 8  21825936.363 7
 114696048.174 8  89373575.231 6
                  21825936.641 6        48.000          37.400

  25694308.961 6  25694323.383 6  25694323.660 6
 135024441.216 6 105213957.546 3 100829977.317 6
                  25694323.246 3        38.100          21.800          41.800

  25343059.039 6  25343070.926 5  25343072.305 6
 133178526.833 6 103775557.672 3  99451538.902 6
                  25343069.762 3        38.600          19.000          41.900

  22080147.977 7  22080155.254 7
 116031945.066 7  90414542.040 5
                  22080155.586 5        46.000          34.700

  24476885.250 6  24476896.426 6  24476896.383 7
 128626842.215 6 100228795.869 3  96052561.047 7
                  24476896.063 3        39.300          22.600          42.800

 18 12  4  1 26 30.0000000  0 10G02G05G06G12G13G15G24G25G29G30
  21100122.570 7
 110881835.487 7  86401477.983 6
                  21100126.980 6        47.900          41.800

  21276198.625 8  21276205.309 7
 111807145.133 8  87122483.263 6
                  21276205.504 6        49.900          41.400

  23493714.430 6  23493725.824 7  23493726.254 7
 123460152.841 6  96202826.858 4  92194337.447 7
                  23493726.004 4        38.500          26.000          44.500

  24834161.227 6  24834171.176 6
 130504369.486 6 101691693.471 3
                  24834171.066 3        36.900          18.600

  20366764.844 8
 107028104.967 8  83398524.889 7
                  20366771.070 7        48.600          43.500

  21809503.633 8  21809510.828 7
 114609733.472 8  89306317.049 6
                  21809511.340 6        48.000          37.300

  25679479.234 6  25679491.859 5  25679492.250 6
 134946502.482 6 105153225.954 2 100771776.251 6
                  25679492.008 2        37.400          16.900          39.900

  25352453.891 6  25352465.465 5  25352466.828 6
 133227899.656 6 103814029.920 2  99488408.071 6
                  25352466.582 2        36.800          17.800          41.500

  22068012.711 7  22068019.656 7
 115968171.998 7  90364848.740 5
                  22068019.906 5        46.200          34.400

  24475000.813 6  24475011.801 6  24475010.844 6
 128616937.034 6 100221077.538 3  96045164.321 6
                  24475011.750 3        38.900          21.800          41.600

 18 12  4  1 27  0.0000000  0 10G02G05G06G12G13G15G24G25G29G30
  21100001.664 7
 110881202.220 7  86400984.492 6
                  21100006.191 6        47.700          41.900

  21282148.375 8  21282154.742 7
 111838411.155 8  87146846.383 6
                  21282154.984 6        49.700          40.800

  23505274.094 6  23505286.223 7  23505285.473 7
 123520901.163 6  96250163.161 4  92239701.396 7
                  23505285.797 4        40.000          26.900          43.800

  24845824.500 6  24845834.070 6
 130565658.614 6 101739451.192 3
                  24845835.027 3        37.700          20.600

  20360785.258 8
 106996683.314 8  83374040.489 7
                  20360791.773 7        48.600          44.000

  21793148.813 7  21793156.141 7
 114523787.228 7  89239345.982 6
                  21793156.395 6        47.900          37.100

  25664593.383 6  25664605.656 5  25664606.180 6
 134868277.364 6 105092271.176 2 100713361.289 6
                  25664605.723 2        37.200          17.400          38.300

  25361857.039 6  25361868.563 5  25361869.379 6
 133277310.587 6 103852531.827 2  99525305.797 6
                  25361868.605 2        37.700          17.800          41.000

  22055966.289 7  22055973.438 7
 115904867.706 7  90315520.711 5
                  22055973.316 5        46.100          35.000

  24473185.164 6  24473196.395 6  24473195.883 7
 128607396.805 6 100213643.583 3  96038040.112 7
                  24473196.164 3        38.800          23.800          42.300

 18 12  4  1 27 30.0000000  0  9G02G05G06G12G13G15G25G29G30
  21099942.266 7
 110880888.914 7  86400740.321 6
                  21099946.730 6        47.800          41.700

  21288114.227 8  21288121.199 7
 111869762.543 8  87171276.009 6
                  21288121.293 6        49.300          41.000

  23516882.797 6  23516895.313 6  23516895.176 7
 123581908.629 6  96297701.344 4  92285258.854 7
                  23516895.172 4        37.400          25.200          43.600

  24857458.422 6  24857468.543 6
 130626795.188 6 101787089.956 3
                  24857468.582 3        37.900          21.100

  20354914.305 8
 106965832.125 8  83350000.599 7
                  20354920.957 7        48.900          43.700

  21776864.336 8  21776871.527 7
 114438211.544 8  89172663.652 6
                  21776871.703 6        48.200          37.300

  25371265.992 6  25371278.102 5  25371278.750 6
 133326757.029 6 103891061.460 3  99562229.989 6
                  25371278.504 3        37.000          18.300          40.900

  22044009.828 7  22044016.676 7
 115842034.497 7  90266559.781 5
                  22044016.867 5        46.500          34.400

  24471438.414 6  24471450.695 6  24471449.574 6
 128598223.228 6 100206495.320 3  96031189.692 6
                  24471450.570 3        37.300          22.000          41.400

 18 12  4  1 28  0.0000000  0  9G02G05G06G12G13G15G25G29G30
  21099943.594 7
 110880897.138 7  86400746.697 6
                  21099948.344 6        47.900          41.800

  21294096.484 8  21294103.199 7
 111901198.807 8  87195771.787 6
                  21294103.324 6        49.500          40.700

  23528542.820 6  23528554.590 7  23528554.145 7
 123643175.725 6  96345441.875 4  92331010.118 7
                  23528554.668 4        38.400          27.500          45.000

  24869062.289 6  24869072.793 6
 130687776.823 6 101834608.027 3
                  24869072.563 3        36.500          18.600

  20349152.203 8
 106935552.854 8  83326406.368 7
                  20349158.930 7        48.500          43.700

  21760650.852 8  21760658.066 7
 114353008.908 8  89106272.032 6
                  21760658.418 6        48.100          37.100

  25380682.422 6  25380693.824 5  25380695.121 6
 133376236.664 6 103929616.915 2  99599178.945 6
                  25380693.641 2        38.300          16.900          41.700

  22032143.180 7  22032149.922 7
 115779674.874 7  90217967.865 5
                  22032150.004 5        46.700          35.000

  24469763.836 6  24469774.566 6  24469774.590 7
 128589418.332 6 100199634.343 3  96024614.613 7
                  24469775.262 3        38.600          22.200          42.300

 18 12  4  1 28 30.0000000  0 10G02G05G06G12G13G15G24G25G29G30
  21100006.375 7
 110881228.846 7  86401005.150 7
                  21100011.547 7        47.900          42.000

  21300094.273 8  21300101.047 7
 111932718.421 8  87220332.533 6
                  21300100.930 6        49.300          40.700

  23540251.250 6  23540262.484 7  23540261.996 7
 123704702.086 6  96393384.400 4  92376955.020 7
                  23540261.844 4        39.100          26.900          44.100

  24880636.844 6  24880647.633 6
 130748601.025 6 101882003.447 3
                  24880647.777 3        37.400          20.100

  20343499.148 8
 106905845.805 8  83303258.017 7
                  20343505.777 7        48.600          43.300

  21744508.758 8  21744515.980 7
 114268181.260 8  89040172.586 6
                  21744515.969 6        48.200          37.800

  25619610.711 5  25619624.133 6  25619625.340 7
 134631902.659 5 104908083.618 3 100536842.335 7
                  25619625.773 3        31.800          18.300          43.300

  25390104.031 6  25390115.699 5  25390115.977 6
 133425746.446 6 103968195.987 2  99636150.400 6
                  25390115.141 2        37.900          16.900          41.500

  22020366.953 7  22020373.773 7
 115717790.679 7  90169746.409 5
                  22020373.762 5        46.800          34.800

  24468158.141 6  24468169.598 6  24468169.238 7
 128580983.332 6 100193061.606 3  96018315.700 7
                  24468169.711 3        38.700          22.500          42.500

 18 12  4  1 29  0.0000000  0 10G02G05G06G12G13G15G24G25G29G30
  21100132.055 7
 110881885.924 7  86401517.130 6
                  21100136.820 6        47.800          41.700

  21306108.039 8  21306115.016 7
 111964320.243 8  87244957.320 6
                  21306114.797 6        49.600          40.300

  23552007.953 6  23552020.223 7  23552019.594 7
 123766487.998 6  96441529.178 4  92423093.753 7
                  23552020.461 4        38.100          26.900          44.100

  24892180.602 6  24892191.023 5
 130809265.413 6 101929274.300 3
                  24892191.590 3        37.100          18.300

  20337955.461 8
 106876712.462 8  83280556.710 7
                  20337961.930 7        48.700          43.800

  21728438.047 8  21728445.543 7
 114183730.623 8  88974366.932 6
                  21728445.563 6        48.100          37.900

  25604508.477 4  25604523.164 6  25604524.016 7
 134552545.773 4 104846247.099 2 100477582.328 7
                  25604523.309 2        28.900          15.600          43.400

  25399529.711 6  25399541.805 5  25399542.355 6
 133475283.819 6 104006796.457 2  99673142.513 6
                  25399541.582 2        36.200          16.300          40.400

  22008681.422 7  22008688.117 7
 115656384.051 7  90121897.112 5
                  22008688.758 5        46.600          35.200

  24466623.953 6  24466635.484 6  24466635.145 7
 128572920.066 6 100186778.518 3  96012294.413 7
                  24466635.359 3        37.100          21.700          42.700

 18 12  4  1 29 30.0000000  0  9G02G05G06G12G13G15G25G29G30
  21100319.305 7
 110882870.038 7  86402283.948 6
                  21100323.727 6        47.700          41.700

  21312136.961 8  21312143.973 7
 111996003.590 8  87269645.612 6
                  21312144.238 6        49.500          40.600

  23563814.141 6  23563827.234 7  23563826.422 7
 123828533.536 6  96489876.274 4  92469426.368 7
                  23563827.172 4        37.000          25.800          43.700

  24903694.617 6  24903704.480 5
 130869767.793 6 101976418.891 3
                  24903703.484 3        37.900          19.000

  20332521.188 8
 106848153.731 8  83258303.156 7
                  20332527.488 7        48.800          43.900

  21712439.680 8  21712447.355 7
 114099659.044 8  88908856.633 6
                  21712447.656 6        48.400          37.900

  25408960.617 5  25408974.270 6  25408973.883 6
 133524846.149 5 104045416.339 2  99710153.310 6
                  25408972.930 2        35.200          16.900          39.800

  21997087.516 7  21997094.430 7
 115595457.449 7  90074421.838 5
                  21997094.539 5        46.200          34.300

  24465161.039 6  24465171.891 6  24465172.051 7
 128565230.089 6 100180786.296 3  96006551.881 7
                  24465171.633 3        37.400          20.100          43.800

 18 12  4  1 30  0.0000000  0  9G02G05G06G12G13G15G25G29G30
  21100568.781 7
 110884181.845 7  86403306.117 7
                  21100573.371 7        47.700          42.200

  21318181.563 8  21318188.184 7
 112027766.458 8  87294395.883 6
                  21318188.188 6        49.400          40.900

  23575671.047 6  23575683.668 7  23575681.977 7
 123890838.086 6  96538425.193 4  92515952.383 7
                  23575682.922 4        38.400          26.500          43.700

  24915176.227 6  24915187.379 5
 130930105.348 6 102023435.095 2
                  24915185.672 2        37.600          17.800

  20327195.469 8
 106820169.544 8  83236497.291 7
                  20327202.281 7        48.600          43.200

  21696513.703 8  21696521.215 7
 114015968.194 8  88843643.009 6
                  21696521.305 6        48.900          38.200

  25418396.750 6  25418407.934 5  25418408.414 6
 133574430.124 6 104084053.136 2  99747180.223 6
                  25418408.988 2        36.000          15.600          38.600

  21985584.617 7  21985591.656 7
 115535012.077 7  90027321.572 5
                  21985592.074 5        46.400          34.200

  24463768.883 6  24463779.801 6  24463780.141 7
 128557914.349 6 100175085.785 3  96001088.828 7
                  24463780.371 3        37.900          20.600          43.000

 18 12  4  1 30 30.0000000  0 10G02G05G06G12G13G15G24G25G29G30
  21100881.016 8
 110885823.256 8  86404585.106 6
                  21100885.879 6        48.000          41.500

  21324240.969 8  21324247.668 7
 112059608.509 8  87319207.857 6
                  21324247.188 6        49.200          39.900

  23587576.594 6  23587588.309 6  23587589.223 7
 123953401.884 6  96587176.088 4  92562671.994 7
                  23587587.891 4        38.400          24.500          43.900

  24926626.820 6  24926636.559 5
 130990276.085 6 102070321.282 3
                  24926636.586 3        37.500          18.300

  20321979.859 8
 106792761.083 8  83215140.053 7
                  20321986.559 7        48.600          43.800

  21680661.109 8  21680668.355 7
 113932660.420 8  88778727.887 6
                  21680668.223 6        48.600          37.800

  25558888.258 5  25558901.824 5
 134312801.519 5
                                        33.500

  25427836.109 6  25427849.012 5  25427848.551 6
 133624033.338 6 104122704.921 2  99784221.507 6
                  25427848.094 2        37.200          15.600          39.600

  21974174.617 7  21974181.469 7
 115475050.901 7  89980598.588 5
                  21974181.867 5        46.600          34.800

  24462448.039 6  24462458.734 6  24462459.387 7
 128550974.761 6 100169678.251 3  95995906.624 7
                  24462459.016 3        36.800          20.100          43.200

 18 12  4  1 31  0.0000000  0 10G02G05G06G12G13G15G24G25G29G30
  21101256.438 7
 110887796.242 7  86406122.461 6
                  21101261.363 6        47.600          41.600

  21330315.133 8  21330321.598 7
 112091528.583 8  87344080.640 6
                  21330321.711 6        49.200          40.400

  23599532.234 6  23599543.281 6  23599543.871 7
 124016225.105 6  96636129.183 4  92609585.342 7
                  23599542.703 4        38.600          25.000          45.100

  24938044.484 5  24938055.320 5
 131050277.907 5 102117075.915 3
                  24938053.906 3        35.700          18.600

  20316874.055 8
 106765929.150 8  83194232.044 7
                  20316880.852 7        48.300          43.500

  21664881.250 8  21664888.715 7
 113849737.730 8  88714112.823 6
                  21664888.891 6        48.700          38.000

  25543577.500 5  25543589.914 6  25543591.633 6
 134232337.066 5 104596734.587 2 100238473.068 6
                  25543590.695 2        34.100          17.400          36.200

  25437278.250 5  25437290.836 5  25437290.723 6
 133673653.297 5 104161369.786 2  99821275.345 6
                  25437290.824 2        32.000          13.900          38.800

  21962856.961 7  21962864.078 7
 115415575.927 7  89934254.467 5
                  21962864.266 5        46.600          35.200

  24461199.727 6  24461210.977 6  24461210.770 7
 128544412.885 6 100164565.072 3  95991006.515 7
                  24461210.902 3        38.100          19.900          43.700

 18 12  4  1 31 30.0000000  0 10G02G05G06G12G13G15G24G25G29G30
  21101695.547 8
 110890102.437 8  86407919.470 6
                  21101700.320 6        48.100          41.300

  21336403.969 8  21336410.523 7
 112123525.701 8  87369013.431 6
                  21336410.848 6        49.100          40.500

  23611536.117 6  23611548.129 7  23611548.832 7
 124079307.715 6  96685284.357 4  92656692.391 7
                  23611547.973 4        38.500          26.200          46.000

  24949430.375 6  24949440.035 5
 131110107.985 6 102163696.685 2
                  24949439.988 2        36.900          17.400

  20311878.070 8
 106739674.516 8  83173773.880 7
                  20311884.574 7        48.400          43.200

  21649175.336 8  21649182.863 7
 113767202.225 8  88649799.463 6
                  21649182.879 6        48.200          38.200

  25528213.891 5  25528227.297 6  25528228.398 7
 134151600.560 5 104533823.057 2 100178182.840 7
                  25528226.676 2        32.400          17.800          42.600

  25446722.070 5  25446735.805 5  25446736.766 6
 133723287.237 5 104200045.543 2  99858339.534 6
                  25446735.191 2        30.700          14.800          40.000

  21951632.000 7  21951639.051 7
 115356589.036 7  89888290.654 5
                  21951639.277 5        46.800          35.800

  24460023.297 6  24460033.969 6  24460033.949 7
 128538230.202 6 100159747.381 3  95986389.526 7
                  24460034.047 3        36.400          20.400          43.500

 18 12  4  1 32  0.0000000  0  9G02G05G06G12G13G15G25G29G30
  21102197.727 7
 110892742.936 7  86409976.960 6
                  21102202.406 6        47.600          41.100

  21342507.563 8  21342513.910 7
 112155598.388 8  87394005.120 6
                  21342513.934 6        49.300          41.100

  23623590.164 6  23623601.484 7  23623602.191 7
 124142649.264 6  96734641.325 4  92703992.798 7
                  23623601.473 4        38.500          25.600          45.600

  24960782.383 6  24960791.773 5
 131169764.227 6 102210182.020 2
                  24960792.426 2        36.300          17.400

  20306991.547 8
 106713997.622 8  83153765.907 7
                  20306998.395 7        48.400          43.700

  21633543.258 8  21633550.582 7
 113685055.518 8  88585789.059 6
                  21633551.121 6        48.400          38.800

  25456170.016 5  25456183.434 5  25456184.422 6
 133772931.937 5 104238729.675 2  99895411.850 6
                  25456182.418 2        33.900          16.300          40.500

  21940500.391 7  21940507.504 7
 115298091.966 7  89842708.526 5
                  21940507.570 5        46.400          35.200

  24458919.180 6  24458929.707 6  24458929.906 7
 128532427.799 6 100155226.029 3  95982056.582 7
                  24458929.809 3        38.700          19.000          43.600

 18 12  4  1 32 30.0000000  0  9G02G05G06G12G13G15G25G29G30
  21102764.570 7
 110895719.986 7  86412296.720 6
                  21102769.145 6        47.500          41.100

  21348624.555 8  21348631.375 7
 112187746.558 8  87419055.649 6
                  21348631.449 6        49.200          40.600

  23635692.195 6  23635704.402 6  23635704.863 7
 124206250.335 6  96784200.475 4  92751486.970 7
                  23635704.250 4        37.100          25.800          45.600

  24972100.711 6  24972111.453 5
 131229244.482 6 102256530.185 3
                  24972110.789 3        37.300          19.000

  20302216.109 8
 106688899.887 8  83134209.228 7
                  20302222.355 7        48.400          44.300

  21617985.477 8  21617993.172 7
 113603299.953 8  88522083.447 6
                  21617993.570 6        48.000          39.000

  25465618.727 5  25465632.188 5  25465632.086 6
 133822585.544 5 104277420.654 2  99932490.762 6
                  25465631.379 2        32.600          16.300          39.900

  21929462.852 7  21929469.508 7
 115240087.252 7  89797510.060 5
                  21929469.590 5        47.200          35.200

  24457887.273 5  24457898.371 6  24457898.293 7
 128527007.790 5 100151002.643 3  95978009.158 7
                  24457898.160 3        35.800          19.300          43.400

 18 12  4  1 33  0.0000000  0 10G02G05G06G12G13G15G24G25G29G30
  21103395.000 7
 110899034.700 7  86414879.592 7
                  21103400.063 7        47.800          42.300

  21354756.586 8  21354762.988 7
 112219968.568 8  87444163.684 6
                  21354763.090 6        49.700          40.400

  23647843.727 6  23647856.586 6  23647857.457 7
 124270110.513 6  96833961.612 4  92799174.678 7
                  23647856.258 4        36.800          25.600          45.500

  24983386.438 6  24983395.867 5
 131288546.390 6 102302739.408 3
                  24983394.895 3        38.100          19.300

  20297550.320 8
 106664381.953 8  83115104.340 7
                  20297556.820 7        49.000          43.800

  21602502.711 8  21602510.383 7
 113521937.442 8  88458684.104 6
                  21602510.563 6        48.700          38.900

  25481812.531 5                  25481827.652 6
 133907781.297 5                  99996101.944 6
                                        31.200                          38.400

  25475066.750 5  25475081.363 5  25475082.648 6
 133872244.962 5 104316116.239 2  99969574.007 6
                  25475081.609 2        31.200          14.800          40.100

  21918518.547 7  21918525.566 7
 115182576.534 7  89752696.505 5
                  21918526.020 5        46.700          35.500

  24456928.578 6  24456939.629 6  24456940.047 7
 128521971.342 6 100147078.181 3  95974248.173 7
                  24456939.918 3        36.400          19.600          43.900

 18 12  4  1 33 30.0000000  0 10G02G05G06G12G13G15G24G25G29G30
  21104091.055 7
 110902688.413 7  86417726.613 7
                  21104095.563 7        47.700          42.100

  21360901.938 8  21360908.559 7
 112252263.202 8  87469328.330 6
                  21360908.793 6        49.300          40.300

  23660046.172 6  23660058.316 6  23660058.488 7
 124334229.502 6  96883924.357 4  92847055.617 7
                  23660058.410 4        38.800          26.000          45.500

  24994635.570 6  24994646.543 5
 131347667.428 6 102348807.716 3
                  24994645.719 3        36.900          18.600

  20292995.086 8
 106640443.887 8  83096451.295 7
                  20293001.543 7        48.600          43.600

  21587095.289 8  21587102.668 7
 113440969.539 8  88395592.238 6
                  21587102.617 6        49.100          39.000

  25466244.648 5  25466258.395 5  25466260.840 5
                                  99935008.946 5
                                        30.300                          35.500

  25484520.195 5  25484532.887 5  25484532.504 6
 133921907.141 5 104354814.153 2 100006659.413 6
                  25484532.270 2        34.300          15.600          39.800

  21907669.773 7  21907675.652 7
 115125561.914 7  89708269.538 5
                  21907676.129 5        47.200          35.700

  24456043.945 6  24456055.020 6  24456054.750 7
 128517319.504 6 100143453.330 3  95970774.365 7
                  24456054.504 3        36.900          19.900          43.700

 18 12  4  1 34  0.0000000  0 10G02G05G06G12G13G15G24G25G29G30
  21104850.688 8
 110906682.632 8  86420838.974 6
                  21104855.465 6        48.400          41.700

  21367060.586 8  21367068.133 7
 112284629.251 8  87494548.614 6
                  21367067.828 6        48.800          40.700

  23672296.555 6  23672310.219 7  23672309.957 7
 124398606.954 6  96934088.498 4  92895129.564 7
                  23672309.746 4        37.600          27.100          45.200

  25005851.516 5  25005861.828 6
 131406605.173 5 102394733.144 3
                  25005862.199 3        35.900          18.300

  20288550.219 8
 106617086.246 8  83078250.541 7
                  20288556.691 7        48.600          43.600

  21571763.320 8  21571770.641 7
 113360398.269 8  88332809.444 6
                  21571770.465 6        49.300          38.800

  25450626.688 4  25450640.621 6  25450641.688 6
                                  99873717.947 6
                                        25.300                          39.700

  25493969.789 5  25493982.180 5  25493981.684 6
 133971569.473 5 104393511.912 2 100043744.765 6
                  25493982.113 2        34.500          14.800          38.800

  21896914.266 7  21896921.469 7
 115069045.167 7  89664230.528 6
                  21896921.250 6        47.200          36.000

  24455232.430 6  24455243.055 6  24455243.129 7
 128513053.509 6 100140129.195 3  95967588.740 7
                  24455242.930 3        36.300          21.800          44.100

 18 12  4  1 34 30.0000000  0 10G02G05G06G12G13G15G24G25G29G30
  21105675.664 7
 110911019.084 7  86424217.996 6
                  21105680.805 6        47.900          41.600

  21373233.391 8  21373239.746 7
 112317066.106 8  87519824.058 6
                  21373240.496 6        49.100          40.800

  23684597.273 6  23684609.164 7  23684609.070 7
 124463242.879 6  96984454.069 4  92943396.562 7
                  23684608.777 4        38.000          26.400          45.600

  25017031.148 5  25017043.266 6
 131465357.614 5 102440514.118 3
                  25017042.500 3        35.400          19.300

  20284215.945 8
 106594309.647 8  83060502.545 7
                  20284222.563 7        48.400          43.600

  21556506.398 8  21556514.082 7
 113280225.394 8  88270337.088 6
                  21556513.973 6        48.900          39.200

  25434959.313 5  25434972.320 6  25434973.809 7
 133661555.277 5                  99812230.973 7
                                        33.600                          43.600

  25503420.383 5  25503432.340 5  25503433.391 6
 134021229.171 5 104432207.724 2 100080828.259 6
                  25503432.176 2        34.900          15.600          41.100

  21886254.531 7  21886261.629 7
 115013028.147 7  89620580.900 6
                  21886261.742 6        47.100          36.000

  24454493.938 5  24454505.195 6  24454504.855 7
 128509175.034 5 100137106.957 3  95964692.414 7
                  24454505.000 3        35.200          20.100          43.700

 18 12  4  1 35  0.0000000  0 10G02G05G06G12G13G15G24G25G29G30
  21106566.672 8
 110915699.431 8  86427865.002 6
                  21106571.676 6        49.000          41.300

  21379419.156 8  21379426.098 7
 112349573.025 8  87545154.115 6
                  21379426.219 6        49.200          40.400

  23696946.516 6  23696958.074 6  23696958.066 7
 124528137.627 6  97035021.319 4  92991856.830 7
                  23696958.316 4        39.200          27.100          45.100

  25028176.211 6  25028187.840 5
 131523922.558 6 102486149.045 3
                  25028187.633 3        36.600          18.600

  20279992.398 8
 106572115.013 8  83043208.022 7
                  20279999.043 7        48.800          43.900

  21541326.453 8  21541333.789 7
 113200453.057 8  88208176.850 6
                  21541334.051 6        49.300          39.000

  25419240.070 5  25419254.172 5  25419255.270 7
 133578954.689 5 104087597.169 2  99750548.669 7
                  25419254.297 2        34.800          17.800          43.900

  25512868.750 5  25512882.031 5  25512882.008 6
 134070884.078 5 104470899.704 2 100117908.151 6
                  25512881.195 2        33.800          14.800          41.000

  21875690.406 7  21875697.344 7
 114957513.048 7  89577322.376 5
                  21875697.344 5        46.900          35.800

  24453829.859 5  24453841.066 6  24453841.363 7
 128505685.718 5 100134387.997 3  95962086.738 7
                  24453841.801 3        35.900          20.400          44.100

 18 12  4  1 35 30.0000000  0 10G02G05G06G12G13G15G24G25G29G30
  21107522.719 7
 110920724.955 7  86431780.963 6
                  21107527.965 6        47.800          41.300

  21385618.633 8  21385625.184 7
 112382148.659 8  87570537.717 6
                  21385625.391 6        48.900          40.500

  23709344.063 6  23709356.703 6  23709357.031 7
 124593290.624 6  97085789.785 4  93040509.946 7
                  23709356.402 4        38.800          25.900          45.600

  25039285.297 6  25039295.477 5
 131582297.653 6 102531636.031 3
                  25039296.195 3        37.400          19.600

  20275879.703 8
 106550502.492 8  83026367.098 7
                  20275886.301 7        48.700          43.600

  21526223.016 8  21526230.324 7
 113121083.135 8  88146330.178 6
                  21526230.332 6        50.000          39.700

  25403473.688 5  25403485.785 5  25403487.117 7
 133496094.990 5 104023031.080 2  99688672.876 7
                  25403485.309 2        34.400          16.300          42.800

  25522316.625 5  25522328.488 5  25522330.555 6
 134120531.063 5 104509585.645 2 100154982.087 6
                  25522329.301 2        34.800          16.900          41.700

  21865221.922 7  21865229.441 7
 114902501.486 7  89534456.235 5
                  21865229.695 5        47.000          35.400

  24453239.805 5  24453251.059 6  24453250.934 7
 128502586.522 5 100131973.037 3  95959772.410 7
                  24453251.387 3        34.700          21.100          43.600

 18 12  4  1 36  0.0000000  0 10G02G05G06G12G13G15G24G25G29G30
  21108545.242 8
 110926096.618 8  86435966.653 6
                  21108550.039 6        48.700          41.100

  21391830.086 8  21391837.066 7
 112414791.803 8  87595973.916 6
                  21391837.105 6        49.100          40.400

  23721792.172 6  23721803.734 6  23721804.348 7
 124658701.495 6  97136759.225 4  93089355.630 7
                  23721803.195 4        37.700          25.600          44.900

  25050355.875 6  25050365.965 5
 131640480.302 6 102576973.134 2
                  25050367.094 2        36.800          15.600

  20271877.953 8
 106529472.218 8  83009979.878 7
                  20271884.391 7        49.100          44.100

  21511195.914 8  21511203.473 7
 113042117.230 8  88084798.334 6
                  21511203.641 6        49.900          39.400

  25387656.617 5  25387667.199 5  25387669.926 6
 133412976.910 5 103958263.547 2  99626604.086 6
                  25387667.820 2        32.000          14.800          39.500

  25531762.219 5  25531775.730 5  25531775.758 6
 134170167.230 5 104548263.146 2 100192047.983 6
                  25531774.102 2        35.400          17.400          41.800

  21854849.789 7  21854856.938 7
 114847995.307 7  89491983.891 5
                  21854857.059 5        46.700          35.800

  24452725.148 5  24452735.660 6  24452735.941 7
 128499878.567 5 100129862.958 3  95957750.241 7
                  24452736.066 3        35.500          20.400          44.600

 18 12  4  1 36 30.0000000  0 10G02G05G06G12G13G15G24G25G29G30
  21109633.789 8
 110931817.387 8  86440424.360 6
                  21109638.688 6        48.000          41.300

  21398055.102 8  21398061.234 7
 112447502.542 8  87621462.780 6
                  21398061.750 6        48.700          40.100

  23734288.070 6  23734299.746 6  23734301.254 7
 124724370.909 6  97187930.106 3  93138394.375 7
                  23734299.453 3        36.400          22.200          46.000

  25061392.180 6
 131698469.134 6 102622159.278 2
                  25061400.785 2        38.400          16.900

  20267987.188 8
 106509025.789 8  82994047.600 7
                  20267993.727 7        48.800          43.700

  21496246.836 8  21496254.129 7
 112963557.943 8  88023583.323 6
                  21496254.262 6        49.900          40.200

  25371791.352 4  25371804.086 6  25371804.551 6
 133329602.161 4 103893295.959 2  99564344.429 6
                  25371803.531 2        28.600          14.800          39.400

  25541205.289 5  25541218.875 6  25541217.531 6
 134219790.725 5 104586930.780 2 100229104.395 6
                  25541218.496 2        34.200          15.600          40.500

  21844574.469 7  21844581.543 7
 114793996.896 7  89449907.215 5
                  21844581.930 5        46.900          35.900

  24452284.094 5  24452295.684 6  24452295.371 7
 128497563.999 5 100128059.406 3  95956021.789 7
                  24452295.426 3        34.700          20.600          44.700

 18 12  4  1 37  0.0000000  0  9G02G05G06G12G13G15G25G29G30
  21110788.820 7
 110937887.605 7  86445154.369 6
                  21110793.914 6        47.900          41.400

  21404292.180 8  21404298.824 7
 112480279.318 8  87647003.082 6
                  21404298.961 6        49.100          40.200

  23746833.453 6  23746845.797 6  23746846.656 7
 124790298.183 6  97239301.945 4  93187625.680 7
                  23746845.430 4        36.200          24.300          45.700

  25072389.664 6
 131756261.727 6 102667192.410 2
                  25072397.926 2        38.300          16.900

  20264207.016 8
 106489163.151 8  82978570.225 7
                  20264213.738 7        49.100          43.600

  21481375.195 8  21481382.250 7
 112885406.473 8  87962686.105 6
                  21481382.465 6        50.300          40.000

  25550643.297 5  25550658.762 5  25550658.277 6
 134269398.487 5 104625586.12012 100266149.036 6
                  25550658.535 2        30.300          15.600          39.700

  21834395.766 7  21834402.891 7
 114740507.944 7  89408227.526 5
                  21834402.816 5        47.100          35.900

  24451919.289 5  24451930.324 6  24451930.094 7
 128495643.572 5 100126562.938 3  95954587.701 7
                  24451930.348 3        35.300          19.900          45.000

 18 12  4  1 37 30.0000000  0 10G02G05G06G12G13G15G24G25G29G30
  21112011.023 7
 110944309.023 7  86450158.046 6
                  21112015.754 6        47.800          41.400

  21410541.625 8  21410548.449 7
 112513121.191 8  87672594.130 6
                  21410548.555 6        49.300          40.300

  23759428.656 6  23759439.566 6  23759441.629 7
 124856483.259 6  97290874.624 3  93237049.505 7
                  23759440.219 3        36.800          22.500          45.800

  25083349.391 6  25083359.566 5
 131813855.460 6 102712070.608 3
                  25083359.344 3        38.400          18.300

  20260538.516 8
 106469884.790 8  82963548.133 7
                  20260545.207 7        48.400          44.100

  21466581.313 8  21466588.496 7
 112807664.915 8  87902108.283 6
                  21466588.746 6        49.500          40.400

  25339915.391 5  25339927.258 5  25339928.652 6
 133162100.231 5 103762759.567 2  99439256.516 6
                  25339926.316 2        31.500          16.300          40.200

  25560082.305 5  25560094.867 6  25560095.008 6
 134318987.903 5 104664227.062 2 100303180.006 6
                  25560094.512 2        33.900          16.300          39.200

  21824314.414 7  21824321.395 7
 114687530.276 7  89366946.239 5
                  21824321.617 5        47.300          35.900

  24451628.906 5  24451640.270 6  24451640.176 7
 128494118.739 5 100125374.763 3  95953449.037 7
                  24451640.227 3        35.400          22.200          44.800

 18 12  4  1 38  0.0000000  0 10G02G05G06G12G13G15G24G25G29G30
  21113300.172 8
 110951082.674 8  86455436.203 6
                  21113304.797 6        48.600          41.900

  21416803.375 8  21416810.117 7
 112546026.803 8  87698234.857 6
                  21416810.203 6        49.200          39.400

  23772072.172 6  23772084.195 6  23772085.129 7
 124922925.594 6  97342647.781 4  93286665.442 7
                  23772084.113 4        37.600          24.900          45.800

  25094271.102 6  25094281.809 6
 131871247.931 6 102756791.957 3
                  25094281.105 3        37.200          19.300

  20256981.477 8
 106451190.687 8  82948981.292 7
                  20256987.836 7        48.600          43.600

  21451865.766 8  21451873.023 7
 112730334.546 8  87841850.881 6
                  21451873.387 6        49.300          40.100

  25323905.289 4  25323917.828 5  25323918.512 6
 133077968.334 4 103697202.130 2  99376430.709 6
                  25323917.152 2        29.100          14.800          39.600

  25569514.484 5  25569527.020 5  25569527.051 6
 134368556.035 5 104702851.517 2 100340195.040 6
                  25569527.426 2        34.200          16.900          38.300

  21814330.617 7  21814337.664 7
 114635065.324 7  89326064.455 5
                  21814337.957 5        47.000          35.800

  24451414.352 5  24451425.570 6  24451425.473 7
 128492990.384 5 100124495.510 3  95952606.451 7
                  24451425.488 3        35.600          21.300          45.300

 18 12  4  1 38 30.0000000  0 10G02G05G06G12G13G15G24G25G29G30
  21114656.633 8
 110958210.927 8  86460990.657 6
                  21114661.469 6        48.300          41.800

  21423077.516 8  21423084.039 7
 112578995.865 8  87723925.022 6
                  21423083.930 6        49.100          40.500

  23784765.430 6  23784777.012 6  23784777.633 7
 124989625.414 6  97394621.605 3  93336473.665 7
                  23784777.055 3        38.300          23.300          45.200

  25105153.508 6  25105163.531 5
 131928437.794 6 102801355.334 3
                  25105164.215 3        36.900          18.600

  20253535.133 8
 106433081.866 8  82934870.533 7
                  20253541.902 7        48.800          44.200

  21437229.156 8  21437236.063 7
 112653417.841 8  87781915.805 6
                  21437236.328 6        49.800          40.100

  25307846.500 5  25307861.438 6  25307860.816 6
 132993587.342 5 103631450.779 2  99313418.947 6
                  25307861.301 2        30.300          16.300          37.600

  25578942.141 5  25578955.688 5  25578955.090 6
 134418100.589 5 104741457.544 2 100377192.531 6
                  25578955.383 2        34.400          16.300          38.600

  21804445.219 7  21804452.012 7
 114583115.412 7  89285584.016 6
                  21804452.172 6        47.100          36.700

  24451275.070 5  24451287.043 6  24451286.527 7
 128492260.286 5 100123926.566 3  95952061.185 7
                  24451287.070 3        35.800          21.300          45.000

 18 12  4  1 39  0.0000000  0 10G02G05G06G12G13G15G24G25G29G30
  21116080.625 8
 110965694.376 8  86466821.897 6
                  21116085.508 6        48.200          41.300

  21429362.711 8  21429369.719 7
 112612027.098 8  87749663.603 6
                  21429369.660 6        49.400          40.200

  23797506.336 6  23797518.047 6  23797519.313 7
 125056581.949 6  97446795.415 3  93386473.595 7
                  23797517.961 3        38.400          22.900          45.500

  25115997.711 6  25116008.891 6
 131985421.974 6 102845758.565 3
                  25116008.578 3        36.200          19.000

  20250200.633 8
 106415557.802 8  82921215.419 7
                  20250207.324 7        48.500          43.600

  21422671.445 8  21422678.574 7
 112576916.042 8  87722304.038 6
                  21422678.695 6        49.300          40.300

  25291743.750 5  25291757.480 6  25291757.703 6
 132908958.904 5 103565506.517 3  99250222.280 6
                  25291757.441 3        33.500          19.000          39.900

  25588365.805 5  25588378.066 5  25588378.723 6
 134467618.340 5 104780042.690 2 100414169.999 6
                  25588378.984 2        34.400          16.300          38.600

  21794657.602 7  21794664.434 7
 114531681.753 7  89245505.843 6
                  21794664.574 6        46.800          36.100

  24451211.648 5  24451223.645 6  24451223.613 7
 128491928.972 5 100123668.376 3  95951813.760 7
                  24451223.270 3        35.800          21.100          44.500

 18 12  4  1 39 30.0000000  0 10G02G05G06G12G13G15G24G25G29G30
  21117572.742 8
 110973534.566 8  86472931.112 6
                  21117577.211 6        48.100          41.200

  21435660.719 8  21435666.828 7
 112645120.028 8  87775450.287 6
                  21435667.066 6        49.800          40.000

  23810296.336 6  23810308.664 6  23810309.488 7
 125123795.350 6  97499169.414 3  93436665.309 7
                  23810309.078 3        37.600          22.500          45.000

  25126801.039 5  25126811.527 5
 132042199.132 5 102890000.398 2
                  25126811.953 2        34.000          17.800

  20246977.422 8
 106398619.595 8  82908016.810 7
                  20246984.031 7        49.100          44.100

  21408192.547 8  21408200.207 7
 112500831.252 8  87663017.216 6
                  21408200.176 6        50.000          40.200

  25275592.977 5  25275606.473 6  25275606.746 7
 132824085.200 5 103499371.128 3  99186842.547 7
                  25275606.590 3        33.900          19.900          42.600

  25597783.211 6  25597796.152 5  25597796.504 6
 134517107.138 6 104818605.355 2 100451125.831 6
                  25597795.637 2        36.800          16.300          40.500

  21784968.703 7  21784975.441 7
 114480766.269 7  89205831.430 6
                  21784975.660 6        46.700          36.400

  24451225.813 6  24451236.590 6  24451236.543 7
 128491998.026 6 100123722.195 3  95951865.324 7
                  24451236.676 3        36.700          19.900          44.500

 18 12  4  1 40  0.0000000  0 10G02G05G06G12G13G15G24G25G29G30
  21119132.508 8
 110981732.946 8  86479319.433 6
                  21119137.441 6        48.100          41.100

  21441969.289 8  21441975.750 7
 112678273.241 8  87801283.950 6
                  21441975.699 6        49.300          39.600

  23823135.367 5  23823147.754 6  23823148.277 7
 125191265.153 5  97551743.236 3  93487048.527 7
                  23823148.055 3        35.200          22.500          45.600

  25137565.977 5  25137575.219 5
 132098766.645 5 102934078.957 2
                  25137576.789 2        35.800          16.900

  20243865.609 8
 106382267.149 8  82895274.645 7
                  20243872.215 7        49.100          43.800

  21393793.914 8  21393801.395 7
 112425165.153 8  87604056.632 6
                  21393801.258 6        49.900          39.900

  25259393.945 5  25259408.707 6  25259409.586 7
 132738967.340 5 103433045.509 2  99123280.462 7
                  25259408.914 2        31.000          16.300          42.800

  25607194.672 5  25607207.691 5  25607207.398 6
 134566564.058 5 104857143.112 2 100488057.857 6
                  25607207.531 2        33.500          14.800          40.300

  21775378.492 8  21775385.594 7
 114430370.580 8  89166562.068 5
                  21775385.527 5        48.000          35.900

  24451314.547 5  24451326.656 6  24451325.770 7
 128492468.586 5 100124088.861 3  95952216.713 7
                  24451326.027 3        35.400          20.900          44.500

 18 12  4  1 40 30.0000000  0 10G02G05G06G12G13G15G24G25G29G30
  21120760.914 7
 110990290.958 7  86485987.991 6
                  21120766.016 6        47.900          41.400

  21448289.484 8  21448295.891 7
 112711485.989 8  87827163.989 6
                  21448296.023 6        49.400          40.300

  23836023.523 6  23836035.816 6  23836036.734 7
 125258991.157 6  97604516.606 3  93537623.015 7
                  23836035.266 3        36.900          21.100          45.300

  25148290.766 6  25148300.316 5
 132155122.120 6 102977992.220 2
                  25148300.633 2        37.500          17.400

  20240865.313 8
 106366500.541 8  82882988.975 7
                  20240871.965 7        49.300          43.700

  21379475.320 8  21379482.137 7
 112349919.392 8  87545423.582 6
                  21379482.480 6        51.100          40.200

  25243152.289 5  25243165.824 5  25243166.324 7
 132653607.894 5 103366531.683 2  99059538.012 7
                  25243165.402 2        31.000          14.800          43.200

  25616600.117 5  25616612.746 6  25616612.793 6
 134615986.534 5 104895654.115 2 100524964.117 6
                  25616612.230 2        35.800          16.300          41.200

  21765887.641 7  21765894.883 7
 114380496.528 7  89127699.163 6
                  21765895.262 6        47.500          36.700

  24451481.305 5  24451491.906 6  24451492.211 7
 128493341.746 5 100124769.222 3  95952868.735 7
                  24451491.863 3        34.300          20.600          44.400

 18 12  4  1 41  0.0000000  0  9G02G05G06G12G13G15G25G29G30
  21122458.711 8
 110999210.162 8  86492937.982 6
                  21122463.172 6        48.300          41.300

  21454620.664 8  21454627.246 7
 112744757.458 8  87853089.777 6
                  21454627.246 6        49.700          39.600

  23848960.727 6  23848972.406 6  23848972.719 7
 125326973.043 6  97657489.454 3  93588388.647 7
                  23848972.457 3        37.500          23.600          45.500

  25158973.484 6  25158983.852 5
 132211263.844 6 103021739.027 2
                  25158983.910 2        37.600          17.400

  20237976.555 8
 106351320.224 8  82871160.163 7
                  20237983.352 7        49.400          44.100

  21365236.430 8  21365244.078 7
 112275095.437 8  87487119.212 6
                  21365243.863 6        51.100          40.300

  25625997.727 5  25626010.422 6  25626011.027 6
 134665372.004 5 104934136.215 2 100561842.799 6
                  25626010.531 2        35.500          16.300          39.700

  21756496.453 7  21756503.680 7
 114331145.996 7  89089244.202 6
                  21756503.734 6        47.500          36.700

  24451724.844 5  24451735.320 6  24451735.313 7
 128494618.712 5 100125764.224 3  95953822.279 7
                  24451735.039 3        35.900          21.500          43.600

 18 12  4  1 41 30.0000000  0  9G02G05G06G12G13G15G25G29G30
  21124224.891 8
 111008492.161 8  86500170.685 6
                  21124229.441 6        49.600          41.500

  21460963.359 8  21460969.980 7
 112778087.227 8  87879061.014 6
                  21460969.797 6        49.300          39.700

  23861945.266 6  23861957.563 6  23861958.383 7
 125395211.219 6  97710661.957 3  93639345.608 7
                  23861956.824 3        37.000          22.200          45.700

  25169617.148 6  25169626.559 5
 132267189.940 6 103065317.774 3
                  25169625.902 3        39.000          19.900

  20235199.617 8
 106336726.920 8  82859788.756 7
                  20235206.324 7        50.200          43.700

  21351078.422 8  21351086.070 7
 112200695.587 8  87429145.318 6
                  21351086.148 6        51.100          39.900

  25635388.039 5  25635400.305 5  25635401.012 6
 134714718.409 5 104972587.912 2 100598692.286 6
                  25635399.695 2        34.200          16.900          38.200

  21747205.656 7  21747212.617 7
 114282320.622 7  89051198.472 6
                  21747212.891 6        47.200          37.000

  24452043.531 5  24452055.930 6  24452055.348 7
 128496301.172 5 100127075.282 3  95955078.647 7
                  24452055.012 3        33.700          19.300          43.700

 18 12  4  1 42  0.0000000  0 10G02G05G06G12G13G15G24G25G29G30
  21126060.313 8
 111018137.901 8  86507686.803 6
                  21126065.105 6        48.400          41.300

  21467316.398 8  21467323.457 7
 112811473.665 8  87905076.388 6
                  21467323.391 6        49.400          39.800

  23874979.727 6  23874992.051 6  23874991.992 7
 125463704.734 6  97764033.435 3  93690493.206 7
                  23874990.492 3        39.200          23.900          44.100

  25180217.406 6  25180227.117 5
 132322898.144 6 103108726.728 3
                  25180227.195 3        37.700          19.000

  20232533.898 8
 106322720.258 8  82848874.477 7
                  20232540.828 7        50.100          43.800

  21337001.898 8  21337008.945 7
 112126721.147 8  87371502.909 6
                  21337009.180 6        51.300          39.700

  25194150.148 5  25194162.449 6  25194164.336 6
 132396108.735 5 103165878.556 3  98867239.878 6
                  25194162.008 3        33.500          18.600          37.900

  25644769.758 5  25644782.551 6  25644781.074 6
 134764022.515 5 105011006.566 2 100635510.221 6
                  25644782.875 2        33.800          17.800          36.400

  21738014.813 7  21738021.957 7
 114234021.947 7  89013563.152 6
                  21738021.953 6        47.500          36.500

  24452441.336 5  24452452.961 6  24452452.777 7
 128498389.727 5 100128702.707 3  95956638.267 7
                  24452452.691 3        34.800          19.300          43.200

 18 12  4  1 42 30.0000000  0 10G02G05G06G12G13G15G24G25G29G30
  21127965.227 8
 111028148.827 8  86515487.500 6
                  21127970.461 6        48.000          41.400

  21473680.367 8  21473686.797 7
 112844916.822 8  87931135.974 6
                  21473687.613 6        49.400          40.100

  23888061.984 6  23888074.297 6  23888075.117 7
 125532453.425 6  97817603.716 3  93741831.392 7
                  23888074.137 3        38.000          21.800          45.100

  25190777.039 6  25190786.145 5
 132378386.125 6 103151964.058 2
                  25190786.121 2        36.000          16.900

  20229980.922 8
 106309300.681 8  82838417.658 7
                  20229987.227 7        50.000          43.700

  21323005.922 8  21323013.539 7
 112053174.045 8  87314193.487 6
                  21323013.703 6        50.500          40.000

  25177725.898 5  25177739.289 6  25177738.387 6
 132309800.496 5 103098625.317 3  98802788.702 6
                  25177739.043 3        35.300          19.900          36.900

  25654144.406 5  25654156.402 6  25654156.383 6
 134813281.978 5 105049390.481 2 100672294.779 6
                  25654156.387 2        33.700          16.300          37.800

  21728924.211 7  21728930.902 7
 114186251.446 7  88976339.390 6
                  21728931.336 6        47.600          37.300

  24452916.734 5  24452928.453 6  24452927.777 7
 128500885.514 5 100130647.466 3  95958502.002 7
                  24452928.230 3        33.300          18.600          43.000

 18 12  4  1 43  0.0000000  0 10G02G05G06G12G13G15G24G25G29G30
  21129940.039 7
 111038525.852 7  86523573.460 6
                  21129944.855 6        47.900          41.500

  21480054.680 8  21480061.676 7
 112878414.963 8  87957238.401 6
                  21480061.633 6        49.100          40.300

  23901193.109 6  23901204.938 6  23901206.063 7
 125601456.434 6  97871372.200 3  93793359.517 7
                  23901204.930 3        38.800          22.300          45.500

  25201292.414 5  25201300.641 4
 132433651.677 5
                                        33.100

  20227538.422 8
 106296467.578 8  82828417.833 7
                  20227545.160 7        49.400          43.700

  21309092.195 8  21309099.605 7
 111980055.495 8  87257218.018 6
                  21309099.691 6        51.100          40.500

  25161257.539 5  25161270.684 6  25161271.027 6
 132223258.974 5 103031190.348 3  98738163.458 6
                  25161270.945 3        33.400          19.600          40.800

  25663507.117 5  25663520.426 5  25663519.973 6
 134862493.549 5 105087737.119 2 100709043.599 6
                  25663521.094 2        31.600          16.300          37.300

  21719934.461 7  21719941.598 7
 114139010.824 7  88939528.530 6
                  21719941.730 6        47.700          37.000

  24453469.359 5  24453480.984 6  24453480.840 7
 128503789.216 5 100132910.073 2  95960670.347 7
                  24453480.949 2        34.300          17.800          42.700

 18 12  4  1 43 30.0000000  0 10G02G05G06G12G13G15G24G25G29G30
  21131984.695 8
 111049270.693 8  86531946.036 6
                  21131989.270 6        48.400          41.100

  21486439.914 8  21486446.762 7
 112911967.796 8  87983383.432 6
                  21486446.918 6        49.600          40.400

  23914372.086 6  23914385.027 6  23914384.961 7
 125670714.015 6  97925339.023 3  93845077.708 7
                  23914384.676 3        38.300          21.800          43.400

  25211766.828 6
 132488693.076 6
                                        36.600

  20225208.180 8
 106284221.712 8  82818875.600 7
                  20225214.801 7        50.700          43.800

  21295260.008 8  21295267.676 7
 111907367.532 8  87200578.065 6
                  21295267.578 6        50.900          40.600

  25144745.555 5  25144759.020 6  25144759.914 7
 132136486.60615 102963575.52112  98673365.897 7
                  25144758.551 2        30.100          17.400          43.000

  25672864.141 5  25672876.391 6  25672877.063 6
 134911655.164 5 105126044.722 2 100745755.078 6
                  25672875.223 2        32.800          16.300          38.600

  21711046.273 7  21711053.469 7
 114092301.553 7  88903131.695 6
                  21711053.430 6        47.900          37.100

  24454099.086 5  24454111.422 6  24454111.516 7
 128507102.319 5 100135491.730 2  95963144.404 7
                  24454111.387 2        34.200          17.400          42.200

 18 12  4  1 44  0.0000000  0 10G02G05G06G12G13G15G24G25G29G30
  21134100.023 8
 111060385.404 8  86540606.814 6
                  21134104.516 6        49.300          41.300

  21492835.258 8  21492842.066 7
 112945574.920 8  88009570.786 6
                  21492842.453 6        49.600          40.400

  23927600.047 6  23927612.289 6  23927612.906 7
 125740226.205 6  97979504.246 3  93896986.019 7
                  23927612.320 3        38.400          22.600          43.400

  25222198.492 6
 132543508.525 6
                                        37.600

  20222989.484 8
 106272563.507 8  82809791.282 7
                  20222996.141 7        49.900          43.600

  21281510.273 8  21281517.484 7
 111835112.098 8  87144275.144 6
                  21281517.684 6        50.200          39.800

  25128190.016 4  25128203.480 6  25128203.809 7
                                  98608397.866 7
                  25128202.938 2        28.300          15.600          44.100

  25682208.617 5  25682222.578 6  25682221.410 6
 134960764.753 5 105164311.903 2 100782427.719 6
                  25682222.027 2        33.600          17.400          38.600

  21702259.203 7  21702266.117 7
 114046126.030 7  88867150.774 6
                  21702266.395 6        47.800          36.600

  24454808.945 5  24454820.469 6  24454819.457 7
 128510826.348 5 100138393.564 2  95965925.326 7
                  24454819.145 2        34.000          17.800          42.300

 18 12  4  1 44 30.0000000  0 10G02G05G06G12G13G15G24G25G29G30
  21136285.633 7
 111071870.507 7  86549556.207 6
                  21136290.219 6        47.800          41.300

  21499240.656 8  21499247.246 7
 112979235.138 8  88035799.513 6
                  21499247.172 6        49.600          39.900

  23940876.445 6  23940888.227 6  23940889.352 7
 125809992.311 6  98033867.336 3  93949084.009 7
                  23940889.066 3        38.500          23.400          45.200

  25232586.219 6  25232596.738 5
 132598095.882 6 103323260.265 3
                  25232596.391 3        37.900          19.600

  20220883.141 8
 106261492.763 8  82801164.738 7
                  20220889.633 7        50.100          43.800

  21267843.313 8  21267850.402 7
 111763290.552 8  87088310.325 6
                  21267850.656 6        50.300          40.100

  25111591.391 5  25111603.941 5  25111605.574 7
                                  98543260.607 7
                  25111604.098 2        31.000          14.800          44.700

  25691542.836 5  25691556.758 6  25691556.777 6
 135009819.318 5 105202536.165 2 100819059.260 6
                  25691556.457 2        34.800          17.800          39.000

  21693574.320 7  21693581.102 7
 114000485.485 7  88831586.713 6
                  21693581.137 6        47.800          36.600

  24455595.523 5  24455606.828 6  24455606.406 6
 128514961.958 5 100141616.089 2  95969013.598 6
                  24455606.543 2        33.800          16.300          40.900

 18 12  4  1 45  0.0000000  0 10G02G05G06G12G13G15G24G25G29G30
  21138541.523 7
 111083726.340 7  86558794.485 6
                  21138546.273 6        47.700          41.000

  21505655.516 8  21505662.301 7
 113012946.568 8  88062068.139 6
                  21505662.586 6        49.300          40.000

  23954199.719 6  23954213.160 6  23954212.578 7
 125880010.796 6  98088427.135 3  94001370.393 7
                  23954213.082 3        36.700          23.300          42.400

  25242929.617 6  25242939.887 5
 132652451.636 6 103365615.389 3
                  25242939.426 3        36.900          18.300

  20218888.016 8
 106251008.289 8  82792995.013 7
                  20218894.508 7        49.100          43.800

  21254258.508 8  21254265.781 7
 111691903.341 8  87032683.940 6
                  21254266.039 6        49.600          40.100

  25094950.219 5  25094960.340 5  25094963.887 7
 131874805.543 5 102759667.998 2  98477954.643 7
                  25094962.047 2        35.600          14.800          43.400

  25700868.141 5  25700880.828 6  25700881.168 6
 135058815.046 5 105240714.568 3 100855646.926 6
                  25700881.051 3        35.400          19.300          39.300

  21684991.125 7  21684997.902 7
 113955379.947 7  88796439.534 6
                  21684998.160 6        47.900          37.500

  24456461.492 5  24456472.242 5  24456471.770 6
 128519508.881 5 100145159.168 2  95972409.052 6
                  24456471.840 2        34.700          17.400          40.700

 18 12  4  1 45 30.0000000  0 10G02G05G06G12G13G15G24G25G29G30
  21140868.586 8
 111095956.026 8  86568324.089 6
                  21140873.414 6        49.000          41.100

  21512080.594 8  21512087.621 7
 113046710.280 8  88088377.496 6
                  21512087.641 6        49.500          39.800

  23967573.289 6  23967585.824 6  23967585.207 7
 125950283.069 6  98143184.637 3  94053846.322 7
                  23967585.203 3        38.100          23.900          42.800

  25253229.016 5  25253240.152 6
 132706575.475 5 103407789.774 3
                  25253239.551 3        35.500          18.300

  20217004.602 8
 106241112.075 8  82785283.678 7
                  20217011.332 7        49.200          44.100

  21240757.320 8  21240764.664 7
 111620953.911 8  86977398.679 6
                  21240764.906 6        49.900          39.900

  25078264.945 5  25078278.344 5  25078279.246 6
 131787130.155 5 102691349.383 2  98412482.673 6
                  25078277.621 2        35.100          17.400          40.200

  25710178.773 5  25710192.637 6  25710192.531 6
 135107751.230 5 105278846.558 2 100892190.057 6
                  25710192.543 2        32.400          15.600          38.100

  21676509.773 7  21676516.637 7
 113910812.192 7  88761711.404 6
                  21676516.715 6        47.900          37.000

  24457404.734 5  24457415.609 5  24457416.004 6
 128524470.093 5 100149025.074 2  95976113.807 6
                  24457415.773 2        33.900          16.300          39.900

 18 12  4  1 46  0.0000000  0 10G02G05G06G12G13G15G24G25G29G30
  21143267.477 8
 111108560.162 8  86578145.459 6
                  21143272.129 6        48.200          40.900

  21518515.180 8  21518521.922 7
 113080524.645 8  88114726.342 6
                  21518522.188 6        49.200          39.600

  23980993.578 6  23981006.270 6  23981006.109 7
 126020808.172 6  98198139.154 3  94106511.070 7
                  23981006.078 3        37.600          23.200          42.700

  25263484.734 6  25263493.848 5
 132760465.342 6 103449781.694 2
                  25263494.754 2        36.300          17.400

  20215233.344 8
 106231803.097 8  82778029.928 7
                  20215239.758 7        48.400          44.200

  21227339.586 8  21227346.398 7
 111550443.044 8  86922455.172 6
                  21227347.176 6        49.300          40.400

  25061539.609 5  25061552.109 6  25061551.949 6
 131699233.553 5 102622858.414 3  98346845.449 6
                  25061552.625 3        35.100          19.000          36.900

  25719478.953 5  25719493.602 5  25719492.813 6
 135156624.752 5 105316929.723 2 100928686.431 6
                  25719492.816 2        30.800          16.300          37.500

  21668131.492 8  21668138.395 7
 113866784.045 8  88727403.759 6
                  21668138.734 6        48.500          37.800

  24458428.023 5  24458438.910 5  24458438.418 6
 128529845.833 5 100153213.929 2  95980128.147 6
                  24458438.555 2        33.200          15.600          39.400

 18 12  4  1 46 30.0000000  0 10G02G05G06G12G13G15G24G25G29G30
  21145737.172 8
 111121539.714 8  86588259.365 6
                  21145742.148 6        48.200          41.200

  21524959.477 8  21524966.305 7
 113114388.636 8  88141113.855 6
                  21524966.230 6        49.200          39.900

  23994461.813 6  23994474.449 6  23994474.734 7
 126091585.378 6  98253290.122 3  94159364.037 7
                  23994474.246 3        36.200          22.800          43.500

  25273694.305 6  25273703.879 5
 132814118.463 6 103491589.278 2
                  25273704.113 2        36.400          16.900

  20213573.711 8
 106223081.096 8  82771233.552 7
                  20213580.160 7        48.700          44.000

  21214005.531 8  21214012.922 7
 111480371.952 8  86867854.329 6
                  21214012.863 6        49.500          40.700

  25044772.016 5  25044784.684 6  25044784.766 6
 131611117.873 5 102554196.814 3  98281044.624 6
                  25044784.453 3        32.500          18.300          37.900

  25728768.133 5  25728780.918 5  25728781.301 6
 135205432.482 5 105355052.740 2 100965133.748 6
                  25728780.918 2        35.200          16.900          39.200

  21659856.156 8  21659863.309 7
 113823296.503 8  88693517.359 6
                  21659863.242 6        48.800          37.500

  24459530.086 5  24459540.797 5  24459540.852 6
 128535636.672 5 100157726.323 2  95984452.526 6
                  24459540.633 2        32.800          16.300          39.000

 18 12  4  1 47  0.0000000  0 10G02G05G06G12G13G15G24G25G29G30
  21148278.891 7
 111134895.603 7  86598666.525 6
                  21148283.773 6        47.300          40.500

  21531412.984 8  21531419.781 7
 113148301.376 8  88167539.337 6
                  21531419.742 6        49.300          39.800

  24007977.945 6  24007991.105 6  24007990.449 7
 126162613.886 6  98308636.873 3  94212404.627 7
                  24007990.520 3        36.200          22.600          42.200

  25283858.648 6  25283868.867 5
 132867532.629 6 103533210.635 2
                  25283868.777 2        37.700          17.800

  20212025.508 8
 106214945.614 8  82764894.217 7
                  20212031.953 7        49.400          43.300

  21200755.734 8  21200762.668 7
 111410741.772 8  86813597.047 6
                  21200762.910 6        49.300          40.000

  25027962.602 4  25027975.617 6  25027975.848 6
 131522784.918 4 102485365.933 2  98215081.634 6
                  25027975.512 2        29.100          16.900          40.200

  25738042.617 5  25738053.938 5  25738055.980 6
 135254171.851 5 105393031.378 2 101001529.879 6
                  25738055.973 2        33.200          15.600          40.800

  21651683.703 7  21651690.633 7
 113780350.536 7  88660052.968 6
                  21651691.082 6        47.400          37.400

  24460710.203 5  24460722.563 5  24460721.785 6
 128541843.335 5 100162562.582 2  95989087.350 6
                  24460721.359 2        30.100          14.800          37.300

